lat,lon,name,city,state,street,rating,numofratings
40.810011,-73.9431823,Lenox Coffee,New York,NY,Unknown Street,0.0,0
40.7032771,-74.0141339,Starbucks,New York,NY,Battery Park Plaza 1,0.0,0
40.7481687,-73.9766084,Cafe Delecctica,New York,NY,3rd Avenue 564,0.0,0
40.7522171,-73.9911323,Best Bagel & Coffee,New York,NY,West 35th Street 225,0.0,0
40.757084,-73.977893,Toasties,New York,NY,East 48th Street 6,0.0,0
40.7786106,-73.9606629,City Market Cafe,New York,NY,Unknown Street,0.0,0
40.725087,-73.9777631,9th St Espresso,New York,NY,East 9th Street 700,0.0,0
40.7938416,-73.9727702,Starbucks,New York,NY,Broadway 2525,0.0,0
40.8052757,-73.9624308,Niko Coffee,New York,NY,Amsterdam Avenue 1090,0.0,0
40.7593049,-73.952923,Starbucks,New York,NY,Main Street 455,0.0,0
40.7481846,-73.985687,Starbucks,New York,NY,5th Avenue 350,0.0,0
40.7254073,-73.9923897,Think Coffee,New York,NY,Bleecker Street 1,0.0,0
40.7272065,-73.9954808,Starbucks,New York,NY,Broadway 665,0.0,0
40.7149297,-74.0110479,Twin Cafe,New York,NY,Unknown Street,0.0,0
40.7151714,-74.0110643,Kaffe 1668,New York,NY,Greenwich Street 275,0.0,0
40.7145898,-74.0151484,Pick-a-Bagel,New York,NY,North End Avenue 102,0.0,0
40.7149567,-74.0094239,Le Pain Quotidien,New York,NY,Unknown Street,0.0,0
40.715522,-74.008983,Starbucks,New York,NY,Chambers Street 125,0.0,0
40.780542,-73.954568,Le Pain Quotidien,New York,NY,Lexington Avenue 1309,0.0,0
40.7246121,-73.9843772,Cafe Social 68,New York,NY,Unknown Street,0.0,0
40.7671831,-73.9720578,Dancing Crane Cafe,New York,NY,Unknown Street,0.0,0
40.7504996,-73.9791604,Starbucks,New York,NY,Park Avenue 90,0.0,0
40.7518527,-73.9775605,Starbucks,New York,NY,Unknown Street,0.0,0
40.767389,-73.9814374,Le Pain Quotidien,New York,NY,Unknown Street,0.0,0
40.7675105,-73.9829426,Starbucks,New York,NY,Columbus Circle 4,0.0,0
40.7676336,-73.9812871,Starbucks,New York,NY,Central Park South 240,0.0,0
40.7649496,-73.979109,Starbucks,New York,NY,Unknown Street,0.0,0
40.7566921,-73.9867194,Europa Cafe,New York,NY,Times Square 3,0.0,0
40.7539377,-73.9768745,The Beer Bar Cafe Centro,New York,NY,Unknown Street,0.0,0
40.7543596,-73.9763714,Starbucks,New York,NY,Unknown Street,0.0,0
40.7529578,-73.9752216,Starbucks,New York,NY,Unknown Street,0.0,0
40.7523179,-73.9738176,Maman,New York,NY,East 44th Street 155,0.0,0
40.7520527,-73.9759313,Starbucks,New York,NY,Unknown Street,0.0,0
40.750611,-73.9768239,Zucker's Bagels & Smoked Fish,New York,NY,Lexington Avenue 370,0.0,0
40.7519302,-73.978195,Central Cafe,New York,NY,Unknown Street,0.0,0
40.7519234,-73.9797222,Starbucks,New York,NY,Madison Avenue 295,0.0,0
40.7528897,-73.9811056,Andaz,New York,NY,Unknown Street,0.0,0
40.7545385,-73.9840441,Wafels and Dinges,New York,NY,Unknown Street,0.0,0
40.7490233,-73.9822288,Starbucks,New York,NY,Madison Avenue 200,0.0,0
40.7433913,-73.9892649,Broadway Cafe,New York,NY,Broadway 1123,0.0,0
40.7538901,-73.9787699,Starbucks,New York,NY,Madison Avenue 340,0.0,0
40.7570782,-73.9759556,Starbucks,New York,NY,Unknown Street,0.0,0
40.7444662,-73.9747193,El Parador Café,New York,NY,Unknown Street,0.0,0
40.7436871,-73.9769314,Starbucks,New York,NY,2nd Avenue 585,0.0,0
40.80593,-73.9545289,Starbucks,New York,NY,Frederick Douglass Boulevard 2195,0.0,0
40.7557338,-73.9824831,Gregory Coffee,New York,NY,Unknown Street,0.0,0
40.7544373,-73.9953011,Sushi Star,New York,NY,9th Avenue 462,0.0,0
40.754189,-73.9954886,Starstruck Coffee,New York,NY,9th Avenue 454,0.0,0
40.7202016,-74.0139829,Sweet Love Snack Bar,New York,NY,Unknown Street,0.0,0
40.733002,-73.9897704,Think Coffee,New York,NY,4th Avenue 123,0.0,0
40.7562302,-73.9750931,Starbucks,New York,NY,Park Avenue 280,0.0,0
40.7952322,-73.9655391,Starbucks,New York,NY,Columbus Avenue 805,0.0,0
40.7879675,-73.9764443,Broad Nosh Bagel,New York,NY,Broadway 2350,0.0,0
40.7883801,-73.977098,The Crossbar,New York,NY,West 86th Street 250,0.0,0
40.739372,-74.002526,Starbucks,New York,NY,Greenwich Avenue 122,0.0,0
40.739495,-74.0029857,Think Coffee,New York,NY,8th Avenue 73,0.0,0
40.7337954,-74.0064644,Starbucks,New York,NY,Hudson Street 518,0.0,0
40.7580159,-73.9889989,Starbucks,New York,NY,Unknown Street,0.0,0
40.7644259,-73.9810737,Starbucks,New York,NY,Unknown Street,0.0,0
40.719348,-73.9899978,Starbucks,New York,NY,Delancey Street 80,0.0,0
40.7235092,-73.9913293,La Colombe Coffee Roasters,New York,NY,Unknown Street,0.0,0
40.8109307,-73.9428375,Astor Row Cafe,New York,NY,Lenox Avenue 404,0.0,0
40.7849274,-73.9788012,Starbucks,New York,NY,Broadway 2252,0.0,0
40.7082349,-74.0076153,BlueSpoon Coffee Co,New York,NY,William Street 90,0.0,0
40.7364693,-73.9790705,Möge Tee,New York,NY,Unknown Street,0.0,0
40.7375845,-74.0001443,Whole Green,New York,NY,7th Avenue 35,0.0,0
40.7072305,-74.0123877,Bean And Bean,New York,NY,Unknown Street,0.0,0
40.7043817,-74.0130472,Starbucks,New York,NY,Broadway 2,0.0,0
40.8735418,-73.9084923,Starbucks,New York,NY,West 225th Street 40,0.0,0
40.7401504,-73.984507,CoCo Fresh Tea & Juice,New York,NY,Lexington Avenue 38B,0.0,0
40.7405189,-73.984262,Starbucks,New York,NY,Unknown Street,0.0,0
40.7101916,-74.0079702,Starbucks,New York,NY,Fulton Street 130,0.0,0
40.722517,-73.997904,Starbucks,New York,NY,Spring Street 72,0.0,0
40.8010232,-73.9587555,Cafe Amrita,New York,NY,Cathedral Parkway 301,0.0,0
40.725584,-73.9947398,Bite,New York,NY,Lafayette Street 337,0.0,0
40.7212256,-73.984094,Pause Cafe,New York,NY,Clinton Street 3,0.0,0
40.7059471,-74.0116452,Joe & The Juice,New York,NY,Broad Street 40,0.0,0
40.7037137,-74.0104781,Springbone Kitchen,New York,NY,Pearl Street 74,0.0,0
40.7051728,-74.011298,Starbucks,New York,NY,Broad Street 55,0.0,0
40.7046071,-74.0091159,Starbucks,New York,NY,Pearl Street 110,0.0,0
40.7308318,-73.983183,Starbucks,New York,NY,1st Avenue 219,0.0,0
40.7602221,-73.9750354,Le Pain Quotidien,New York,NY,Unknown Street,0.0,0
40.7851171,-73.9766494,Chalait,New York,NY,Amsterdam Avenue 461,0.0,0
40.7468389,-73.9933857,GiGi Cafe,New York,NY,Unknown Street,0.0,0
40.8101961,-73.9618962,Joe Coffee Company,New York,NY,West 120th Street 550,0.0,0
40.771384,-73.9824717,Starbucks,New York,NY,Broadway 1889,0.0,0
40.7932055,-73.9675462,Birch Coffee,New York,NY,Columbus Avenue 750,0.0,0
40.808949,-73.9609388,Uris Deli,New York,NY,Unknown Street,0.0,0
40.8094957,-73.9602878,Blue Java,New York,NY,Unknown Street,0.0,0
40.7761432,-73.9502069,Starbucks,New York,NY,1st Avenue 1631,0.0,0
40.7859465,-73.9507027,Starbucks,New York,NY,Lexington Avenue 1491,0.0,0
40.7333179,-74.0005572,Joe Coffee Company,New York,NY,Waverly Place 141,0.0,0
40.7332121,-74.0026862,Starbucks,New York,NY,Grove Street 74,0.0,0
40.7461544,-73.9975859,Brooklyn Bagel & Coffee Company,New York,NY,8th Avenue 286,0.0,0
40.7439702,-73.9997102,St Kilda Coffee,New York,NY,8th Avenue 211,0.0,0
40.7447814,-73.9985854,Zucker's,New York,NY,6th Avenue 500,0.0,0
40.7411054,-74.0012613,Starbucks,New York,NY,8th Avenue 124,0.0,0
40.7451876,-73.9988416,Starbucks,New York,NY,West 23rd Street 300,0.0,0
40.7384873,-74.0000074,Bagel and More,New York,NY,Unknown Street,0.0,0
40.7388452,-73.9998143,The Donut Pub,New York,NY,West 14th Street 203,0.0,0
40.7857253,-73.9729983,Joe Coffee Company,New York,NY,Columbus Avenue 514,0.0,0
40.7822907,-73.9792081,Bagel Talk,New York,NY,Amsterdam Avenue 368,0.0,0
40.761405,-73.9678672,Starbucks,New York,NY,Unknown Street,0.0,0
40.7694073,-73.9848933,Starbucks,New York,NY,Columbus Avenue 2,0.0,0
40.7871147,-73.9719656,Columbus Cafe,New York,NY,Columbus Avenue 556,0.0,0
40.7777547,-73.9826132,Starbucks,New York,NY,Broadway 2045,0.0,0
40.7231858,-73.9901312,Yonah Shimmel Knish Bakery,New York,NY,East Houston Street 137,0.0,0
40.728772,-73.9877814,Xing Fu Tang,New York,NY,2nd Avenue 133,0.0,0
40.7297726,-73.98948,The Bean,New York,NY,3rd Avenue 31,0.0,0
40.7258624,-73.9898947,Kona Coffee and Company,New York,NY,2nd Avenue 57,0.0,0
40.726927,-73.9957148,Grabenstein's Bagels,New York,NY,Broadway 651,0.0,0
40.7225241,-73.9934347,PlantShed,New York,NY,Prince Street 1,0.0,0
40.7261039,-73.9987153,Felix Roasting Co.,New York,NY,Greene Street 145,0.0,0
40.7268477,-74.0001615,Starbucks,New York,NY,Unknown Street,0.0,0
40.729007,-73.9847265,Not As Bitter,New York,NY,East 10th Street 241,0.0,0
40.7294911,-73.9863927,Prince Tea House,New York,NY,East 10th Street 204,0.0,0
40.7304731,-73.9894757,Hidden Grounds,New York,NY,3rd Avenue 36,0.0,0
40.7301234,-73.9941159,Lazy Sundaes,New York,NY,Waverly Place 11,0.0,0
40.7302457,-73.9939666,Matto Espresso,New York,NY,Mercer Street 293,0.0,0
40.7342526,-73.9923138,Starbucks,New York,NY,University Place 111,0.0,0
40.7343881,-73.9910564,Max Brenner,New York,NY,Broadway 841,0.0,0
40.7350879,-73.9933063,Joe Coffee Company,New York,NY,East 13th Street 9,0.0,0
40.7213537,-73.9977481,Citizens,New York,NY,Lafayette Street 201,0.0,0
40.7239788,-73.9964591,La Colombe Coffee Roasters,New York,NY,Lafayette Street 270,0.0,0
40.7208307,-73.9959563,Kolkata Chai Co,New York,NY,Kenmare Street 60,0.0,0
40.7445908,-73.988682,Cha Cha Matcha,New York,NY,Broadway 1158,0.0,0
40.724302,-73.9912261,Kollectiv,New York,NY,Unknown Street,0.0,0
40.7775475,-73.9784645,72nd Eatery,New York,NY,Columbus Avenue 261,0.0,0
40.718849,-73.9966792,Haven Cafe,New York,NY,Mott Street 147,0.0,0
40.7195996,-73.9963707,Chiu Hong Bakery & Restaurant,New York,NY,Unknown Street,0.0,0
40.7218498,-74.0008229,Bibliotheque Cafe & Winebar,New York,NY,Mercer Street 54,0.0,0
40.7172462,-73.9950457,Teado Tea Shop,New York,NY,Hester Street 145,0.0,0
40.7162569,-73.9950007,Yaya Tea Garden,New York,NY,Chrystie Street 51,0.0,0
40.7196388,-73.9895629,Russ & Daughters Cafe,New York,NY,Orchard Street 127,0.0,0
40.7399221,-73.9893996,Cha Cha Matcha,New York,NY,Broadway 922,0.0,0
40.7364478,-73.9909744,Joe Coffee,New York,NY,Union Square West 29,0.0,0
40.7437268,-73.9814828,Penelope,New York,NY,Unknown Street,0.0,0
40.7385396,-73.987301,Blue Bottle Coffee,New York,NY,Park Avenue South 257,0.0,0
40.7368994,-73.986826,Hutch + Waldo,New York,NY,Unknown Street,0.0,0
40.8078217,-73.9450772,Starbucks,New York,NY,Unknown Street,0.0,0
40.7292441,-74.0037022,Daily Provisions,New York,NY,Bedford Street 29,0.0,0
40.7311268,-74.0046067,Bedford Studio,New York,NY,Bedford Street 62,0.0,0
40.7184787,-74.0024786,Blue Bottle Coffee,New York,NY,Broadway 396,0.0,0
40.7157707,-73.9991388,Alimama Tea,New York,NY,Bayard Street 89A,0.0,0
40.7210007,-74.0044453,Caffé Bene,New York,NY,Canal Street 378,0.0,0
40.7165943,-73.9908966,Gather,New York,NY,Unknown Street,0.0,0
40.7157788,-73.9965978,Bake Culture,New York,NY,Bowery 48,0.0,0
40.7157755,-73.9907804,Aujla's,New York,NY,Unknown Street,0.0,0
40.736735,-74.0013586,Roasting Plant,New York,NY,Greenwich Avenue 75,0.0,0
40.7408955,-74.0070903,Jack's Coffee,New York,NY,West 13th Street 425,0.0,0
40.7185051,-73.9945454,Hey Tea,New York,NY,Unknown Street,0.0,0
40.717109,-73.9945679,Kung Fu Tea,New York,NY,Chrystie Street 73,0.0,0
40.7766224,-73.9890983,Blu Café,New York,NY,Riverside Boulevard 120,0.0,0
40.8010399,-73.9618044,Crêpes on Columbus,New York,NY,Columbus Avenue 990,0.0,0
40.7532069,-73.9806932,Pan d'oro,New York,NY,Unknown Street,0.0,0
40.7428458,-73.9999943,16 Handles,New York,NY,8th Avenue 178,0.0,0
40.7047913,-74.0071236,Starbucks,New York,NY,Wall Street 99,0.0,0
40.7607479,-73.9706036,Ninth Street Espresso,New York,NY,East 56th Street 109,0.0,0
40.8414095,-73.9398998,Mike's Bagels,New York,NY,Unknown Street,0.0,0
40.8413365,-73.9399524,Starbucks,New York,NY,Broadway 4001,0.0,0
40.8235504,-73.9490856,Yellow Banana Snack Bar,New York,NY,Amsterdam Avenue 1658,0.0,0
40.7634192,-73.981318,Café Metro,New York,NY,Unknown Street,0.0,0
40.7608044,-73.9837222,Starbucks,New York,NY,7th Avenue 750,0.0,0
40.75555,-73.9840554,Starbucks,New York,NY,6th Avenue 1101,0.0,0
40.7774839,-73.9552436,Starbucks,New York,NY,3rd Avenue 1488,0.0,0
40.7794817,-73.9537572,Starbucks,New York,NY,3rd Avenue 1542,0.0,0
40.7438766,-73.9887987,Starbucks,New York,NY,Broadway 1140,0.0,0
40.7659236,-73.9636686,Starbucks,New York,NY,3rd Avenue 1128,0.0,0
40.7746444,-73.9543658,Starbucks,New York,NY,2nd Avenue 1559,0.0,0
40.7636753,-73.9773838,Starbucks,New York,NY,6th Avenue 1380,0.0,0
40.7653752,-73.9575093,Le Pain Quotidien,New York,NY,1st Avenue 1270,0.0,0
40.7791466,-73.9474467,Starbucks,New York,NY,East 90th Street 400,0.0,0
40.7689352,-73.963462,World Cup Cafe & Bakery,New York,NY,Lexington Avenue 956,0.0,0
40.7452192,-73.9908474,Starbucks,New York,NY,Avenue of the Americas 776,0.0,0
40.7620837,-73.9833543,Starbucks,New York,NY,West 52nd Street 156,0.0,0
40.7590282,-73.9926029,Starbucks,New York,NY,9th Avenue 684,0.0,0
40.7799038,-73.9597037,Starbucks,New York,NY,Madison Avenue 1142,0.0,0
40.7422223,-74.0046642,chalait,New York,NY,9th Avenue 75,0.0,0
40.744475,-74.0062646,Star On 18,New York,NY,10th Avenue 128,0.0,0
40.7445639,-73.9992418,Fellini Coffee,New York,NY,8th Avenue 231,0.0,0
40.7397486,-73.9926774,Gotham Coffee Roasters,New York,NY,West 19th Street 23,0.0,0
40.7473252,-74.000383,Sullivan Street Bakery,New York,NY,Unknown Street,0.0,0
40.735181,-73.9860339,Gramercy Cafe,New York,NY,3rd Avenue 184,0.0,0
40.7359816,-73.98546,Sunburst Espresso Bar,New York,NY,3rd Avenue 206,0.0,0
40.7371981,-73.9845693,Gramercy Bagels,New York,NY,3rd Avenue 246,0.0,0
40.7352652,-73.983052,Mon Cheri,New York,NY,2nd Avenue 323A,0.0,0
40.7408146,-73.983604,Yi Fang Tea,New York,NY,Lexington Avenue 61,0.0,0
40.8052024,-73.9656144,Tea Magic,New York,NY,Broadway 2878,0.0,0
40.7641932,-73.9812315,Premier Deli Café,New York,NY,7th Avenue 856,0.0,0
40.7452911,-73.9845959,Slate Cafe,New York,NY,Madison Avenue 121,0.0,0
40.7547832,-73.9913539,Grace Cafe,New York,NY,8th Avenue 572,0.0,0
40.7688283,-73.9885588,Rex,New York,NY,10th Avenue 864,0.0,0
40.7685278,-73.9855197,Masseria Caffé & Bakery,New York,NY,9th Avenue 891,0.0,0
40.7516393,-73.9702273,Pennylane Coffee,New York,NY,East 45th Street 305,0.0,0
40.7521428,-73.9739415,Gong Cha,New York,NY,East 44th Street 160,0.0,0
40.7506675,-73.973776,Aroma Espresso Bar,New York,NY,East 42nd Street 205,0.0,0
40.7599011,-73.9696793,Maman,New York,NY,Lexington Avenue 667,0.0,0
40.7503295,-73.9770276,Starbucks,New York,NY,Lexington Avenue 360,0.0,0
40.7580277,-73.9714246,Devocion,New York,NY,Lexington Avenue 600,0.0,0
40.7583219,-73.9741196,Starbucks,New York,NY,East 51st Street 45,0.0,0
40.7563907,-73.9782057,Starbucks,New York,NY,5th Avenue 575,0.0,0
40.7602955,-73.9845027,Gong Cha,New York,NY,Broadway 1600,0.0,0
40.7616358,-73.9638234,Hawa,New York,NY,2nd Avenue 1151,0.0,0
40.7604406,-73.987191,Starbucks,New York,NY,8th Avenue 770,0.0,0
40.75965,-73.985965,Cafe Edison,New York,NY,West 47th Street 228,0.0,0
40.7663762,-73.9599027,Gotham Green Cafe,New York,NY,2nd Avenue 1296,0.0,0
40.76607,-73.9574726,Starbucks,New York,NY,1st Avenue 1281,0.0,0
40.7699331,-73.9546801,Starbucks,New York,NY,1st Avenue 1445,0.0,0
40.767958,-73.9637948,Gong Cha,New York,NY,Lexington Avenue 925,0.0,0
40.7698597,-73.9671261,Poppi,New York,NY,East 69th Street 20,0.0,0
40.7692531,-73.9632427,Corrado Bread And Pastry,New York,NY,Lexington Avenue 960,0.0,0
40.7742485,-73.9629901,Café Carlyle,New York,NY,East 76th Street 35,0.0,0
40.7737711,-73.9578856,Harbs,New York,NY,3rd Avenue 1374,0.0,0
40.7719283,-73.953579,Le Petit Parisienne,New York,NY,East 78th Street 355,0.0,0
40.7773842,-73.9552806,Juice Generation,New York,NY,3rd Avenue 1486,0.0,0
40.7873253,-73.9538938,Daily Provisions,New York,NY,Madison Avenue 1381,0.0,0
40.7748547,-73.9841451,Starbucks,New York,NY,Amsterdam Avenue 141,0.0,0
40.777108,-73.9817979,Chanson,New York,NY,Broadway 2040,0.0,0
40.7778296,-73.9793656,Juice Generation,New York,NY,West 72nd Street 117,0.0,0
40.7819863,-73.9813099,Le Pain Quotidien,New York,NY,Broadway 2161,0.0,0
40.7822863,-73.9787291,Daily Provisions,New York,NY,Amsterdam Avenue 375,0.0,0
40.7847359,-73.9796748,Zabar's Cafe,New York,NY,Broadway 2241,0.0,0
40.787081,-73.9752113,Fellini Coffee,New York,NY,Amsterdam Avenue 523,0.0,0
40.7867605,-73.9722137,Starbucks,New York,NY,Columbus Avenue 540,0.0,0
40.7892265,-73.9754011,La Farine,New York,NY,Broadway 2394,0.0,0
40.8220999,-73.9496705,Café One,New York,NY,Amsterdam Avenue 1619,0.0,0
40.7910099,-73.9741121,Tal Bagels,New York,NY,Broadway 2446,0.0,0
40.7921965,-73.9732253,Fillup Coffee,New York,NY,Broadway 2486,0.0,0
40.798239,-73.9695036,Boba Whale,New York,NY,Broadway 2667,0.0,0
40.7984682,-73.9636775,City Coffee Bar,New York,NY,Columbus Avenue 914,0.0,0
40.7994859,-73.9610681,Park Cafe,New York,NY,Manhattan Avenue 153,0.0,0
40.8031673,-73.9670896,Gong Cha,New York,NY,Broadway 2810,0.0,0
40.7997636,-73.9526587,Claire's Kitchen Cafe,New York,NY,Saint Nicholas Avenue 19,0.0,0
40.8274731,-73.9493563,Hamilton's Bakery and Cafe,New York,NY,Broadway 3570;3576,0.0,0
40.8113713,-73.961115,Broadway Au Lait,New York,NY,Broadway 3070,0.0,0
40.8150497,-73.9590898,Starbucks,New York,NY,Broadway 3165,0.0,0
40.8062968,-73.9654905,Blue Bottle Coffee,New York,NY,Broadway 2901,0.0,0
40.8618825,-73.9251616,Dyckman Cafe & Grill,New York,NY,Dyckman Street 108,0.0,0
40.7663043,-73.9829515,Starbucks,New York,NY,Unknown Street,0.0,0
40.7116433,-74.0066898,Starbucks,New York,NY,Park Row 38,0.0,0
40.7160631,-74.0085698,Bluestone Lane,New York,NY,West Broadway 109,0.0,0
40.7112884,-74.0102748,Épicerie Boulud,New York,NY,Church Street 41,0.0,0
40.7092434,-74.0078826,Suited,New York,NY,John Street 45,0.0,0
40.7137279,-74.0084336,Takahachi Bakery,New York,NY,Murray Street 25,0.0,0
40.7426583,-73.9983133,Café Grumpy,New York,NY,West 20th Street 224,0.0,0
40.7151271,-73.9901425,Café Grumpy,New York,NY,Essex Street 13,0.0,0
40.7116726,-73.9946073,CC’s Cafe,New York,NY,Monroe Street 41,0.0,0
40.7422365,-73.9949484,Joe Pro Shop & Headquarters,New York,NY,West 21st Street 131,0.0,0
40.7163413,-73.9885359,The Doughnut Plant,New York,NY,Grand Street 379,0.0,0
40.7474254,-73.9737287,Ground Central,New York,NY,2nd Avenue 714,0.0,0
40.803562,-73.9636828,Hungarian Pastry Shop,New York,NY,Amsterdam Avenue 1030,0.0,0
40.7729961,-73.9742495,Le Pain Quotidien,New York,NY,Unknown Street,0.0,0
40.709679,-74.0083821,d Elici,New York,NY,Nassau Street 71,0.0,0
40.7102382,-74.0106426,The Coffee Bean & Tea Leaf,New York,NY,Cortlandt Street 22,0.0,0
40.7182651,-74.007295,Starbucks,New York,NY,Greenwich Street 372,0.0,0
40.7071222,-74.0049867,Coffee Project New York | Financial District,New York,NY,John Street 135,0.0,0
40.7065796,-74.0050348,Flavors,New York,NY,Unknown Street,0.0,0
40.7533516,-73.9957959,34th Bagels & More,New York,NY,West 34th Street 365,0.0,0
40.7412113,-74.004914,Le Pain Quotidien,New York,NY,9th Avenue 52,0.0,0
40.7343889,-74.002678,Cafe Condesa,New York,NY,Unknown Street,0.0,0
40.7354463,-74.0031986,Sant Ambroeus,New York,NY,Unknown Street,0.0,0
40.7352996,-74.0062382,Cafe Panino Mucho Gusto,New York,NY,Hudson Street 551,0.0,0
40.760572,-73.9687188,Juan Valdez Café,New York,NY,East 57th Street 140,0.0,0
40.7724449,-73.9499445,Starbucks,New York,NY,York Avenue 1515,0.0,0
40.7177744,-73.9905236,Roasting Plant,New York,NY,Orchard Street 81,0.0,0
40.7504102,-73.9928259,Tim Hortons,New York,NY,Penn Plaza 2,0.0,0
40.7062033,-74.011905,Bluestone Lane Coffee,New York,NY,Broad Street 30,0.0,0
40.7180119,-73.9901723,Sunday to Sunday,New York,NY,Orchard Street 88,0.0,0
40.7644229,-73.9879761,Kahve,New York,NY,9th Avenue 774,0.0,0
40.7327952,-73.9979676,Stumptown,New York,NY,West 8th Street 30,0.0,0
40.7306205,-73.9951131,Oren's Daily Roast,New York,NY,Waverly Place 29,0.0,0
40.7779198,-73.978202,Starbucks,New York,NY,Columbus Avenue 267-275,0.0,0
40.7810251,-73.981008,Starbucks,New York,NY,Broadway 2138,0.0,0
40.7469335,-73.9933215,Starbucks,New York,NY,7th Avenue 315,0.0,0
40.746485,-73.9822904,Gregory's Coffee,New York,NY,East 33rd Street 48,0.0,0
40.7557287,-73.9904972,Kiss My Slice,New York,NY,West 40th Street 274,0.0,0
40.7736696,-73.9596624,Pick-A-Bagel,New York,NY,Lexington Avenue 1101,0.0,0
40.7777126,-73.9570936,Tal Bagels,New York,NY,Lexington Avenue 1228,0.0,0
40.7504317,-73.9897503,Moka & Co,New York,NY,Unknown Street,0.0,0
40.8233712,-73.9523695,Tanto Dulce Cafe,New York,NY,Broadway 3446,0.0,0
40.7646902,-73.9796633,Blue Dog,New York,NY,Unknown Street,0.0,0
40.727887,-73.982007,Horus Café,New York,NY,East 10th Street 293,0.0,0
40.7531885,-73.9797511,Bluestone Lane Coffee,New York,NY,East 42nd Street 11,0.0,0
40.7280641,-73.9932516,La Colombe Coffee Roasters,New York,NY,Lafayette Street 400,0.0,0
40.7354601,-73.9861323,Corbet & Conley,New York,NY,East 17th Street 145,0.0,0
40.7542147,-73.9840492,Le Pain Quotidien,New York,NY,Unknown Street,0.0,0
40.8344857,-73.9451934,Taszo Espresso Bar,New York,NY,Edward M. Morgan Place 5,0.0,0
40.8345935,-73.9452247,Semicolon,New York,NY,Edward M. Morgan Place 9,0.0,0
40.7326688,-73.986116,ViVi Bubble Tea,New York,NY,East 14th Street 226,0.0,0
40.7337952,-73.9865529,Starbucks,New York,NY,3rd Avenue 145,0.0,0
40.7344416,-73.9860982,Cupsoul,New York,NY,3rd Avenue 165,0.0,0
40.7306979,-73.9814385,Gemina,New York,NY,East 14th Street 424,0.0,0
40.7530185,-73.9772838,Starbucks,Grand Central Station,NY,Track 35,0.0,0
40.7693396,-73.9886262,Bagel Market,New York,NY,10th Avenue 875,0.0,0
40.7711856,-73.9568688,Starbucks,New York,NY,Second Avenue 1449,0.0,0
40.764814,-73.9759888,Sip + Co.,New York,NY,West 58th Street 41,0.0,0
40.7417954,-73.9970742,FIKA 7th Avenue,New York,NY,Unknown Street,0.0,0
40.7510046,-73.9765387,FIKA Grand Central,New York,NY,Unknown Street,0.0,0
40.723711,-74.0104259,FIKA Tribeca & Chocolate Factory,New York,NY,Unknown Street,0.0,0
40.7458278,-74.0015707,FIKA 9th Avenue,New York,NY,Unknown Street,0.0,0
40.7447183,-73.9790898,Blank Street Coffee,New York,NY,3rd Avenue 472,0.0,0
40.7450755,-73.9789117,Matto Espresso,New York,NY,East 33rd Street 164,0.0,0
40.7224756,-73.9829662,Sunday Morning,New York,NY,Avenue B 29,0.0,0
40.7229149,-73.9832351,Kolkota Chai Company,New York,NY,East 3rd Street 199,0.0,0
40.7536535,-73.984378,Southwest Porch,New York,NY,Unknown Street,0.0,0
40.7503257,-73.9716056,Chelsea Bagel,New York,NY,Unknown Street,0.0,0
40.807525,-73.9608785,Nous Espresso,New York,NY,Unknown Street,0.0,0
40.738035,-74.003421,Grounded,New York,NY,Unknown Street,0.0,0
40.737043,-74.003887,Café Minerva,New York,NY,Unknown Street,0.0,0
40.7370022,-73.9896034,Starbucks,New York,NY,Unknown Street,0.0,0
40.7467841,-74.0016172,Joe Coffee Company,New York,NY,West 23rd Street 405,0.0,0
40.7485056,-74.0087396,Bluestone Lane,New York,NY,Chelsea Piers 62,0.0,0
40.7502191,-73.967463,UN Visitors Café,New York,NY,Unknown Street,0.0,0
40.725171,-74.00295,Dominique Ansel Bakery,New York,NY,Spring Street 189,0.0,0
40.712179,-74.008181,Starbucks,New York,NY,Unknown Street,0.0,0
40.7658131,-73.9653728,Le Pain Quotidien,New York,NY,Lexington Avenue 861,0.0,0
40.7437478,-73.9790582,Banter,New York,NY,East 31st Street 201,0.0,0
40.7435815,-73.9920821,Starbucks,New York,NY,6th Avenue 750,0.0,0
40.7435359,-73.9925708,The Corner Cafe,New York,NY,6th Avenue 729,0.0,0
40.7498951,-73.972877,Starbucks,New York,NY,Unknown Street,0.0,0
40.7446682,-73.98756,Think Coffee,New York,NY,5th Avenue 246,0.0,0
40.7439872,-73.9858906,Seven grams,New York,NY,Unknown Street,0.0,0
40.719225,-74.0066966,Gotan,New York,NY,Unknown Street,0.0,0
40.8233265,-73.9426474,Starbucks,New York,NY,West 145th Street 301,0.0,0
40.7457175,-74.0054589,Cookshop,New York,NY,10th Avenue 156,0.0,0
40.7596945,-73.9958873,Rustic Table ,New York,NY,Unknown Street,0.0,0
40.7879358,-73.9534358,Le Pain Quotidien,New York,NY,Madison Avenue 1399,0.0,0
40.7358239,-74.0008231,Bluestone Lane,New York,NY,Unknown Street,0.0,0
40.73833,-74.0053849,Hudson Cafe,New York,NY,Unknown Street,0.0,0
40.7207158,-73.9947851,The Butcher's Daughter,New York,NY,Kenmare Street 19,0.0,0
40.7388422,-74.0056803,High Street on Hudson,New York,NY,Hudson Street,0.0,0
40.7345574,-74.0063447,Sweet Corner Bakeshop,New York,NY,Hudson Street 535,0.0,0
40.7341718,-74.0074226,The Elk,New York,NY,Unknown Street,0.0,0
40.7593488,-73.9885067,Carve Café & Pizza,New York,NY,Unknown Street,0.0,0
40.7403739,-74.0055542,Kobrick Coffee,New York,NY,9th Avenue 28,0.0,0
40.7552587,-73.9945988,Ramini espresso bar,New York,NY,West 37th Street 265 w,0.0,0
40.7515474,-73.9705865,Matto Espresso,New York,NY,2nd Avenue 844,0.0,0
40.7281762,-73.9821791,Tompkins Square Bagels,New York,NY,Avenue A 165,0.0,0
40.7363315,-73.9971668,Murray's Bagels,New York,NY,6th Avenue 500,0.0,0
40.7137511,-73.9985135,10 Below Ice Cream,New York,NY,Unknown Street,0.0,0
40.7330154,-74.0033657,Bar Pisellino,New York,NY,Grove Street 52,0.0,0
40.7532402,-73.9845838,Le Pain Quotidien,New York,NY,West 40th Street 70,0.0,0
40.7636783,-73.9823708,Starbucks,New York,NY,Broadway 1700,0.0,0
40.7480793,-73.9892846,Starbucks,New York,NY,6th Avenue 875,0.0,0
40.7455323,-73.9943777,Seven Grams Caffe,New York,NY,7th Avenue 275,0.0,0
40.7363224,-73.994803,ViVi Bubble Tea,New York,NY,West 14th Street 18,0.0,0
40.8213006,-73.9445186,Manhattanville Coffee,New York,NY,Unknown Street,0.0,0
40.783839,-73.9584235,Bluestone Lane,New York,NY,Unknown Street,0.0,0
40.7643286,-73.984836,Pick a Bagel,New York,NY,8th Avenue 891,0.0,0
40.7469873,-73.9969959,Bean&Bean Coffee,New York,NY,Unknown Street,0.0,0
40.7227486,-73.9890819,ViVi Bubble Tea,New York,NY,Allen Street 205,0.0,0
40.7180559,-73.997117,12 Corners,New York,NY,Mott Street 121,0.0,0
40.7273019,-73.9861875,Abraço,New York,NY,East 7th Street 81,0.0,0
40.7416112,-74.005149,Starbucks Reserve,New York,NY,9th Avenue 61,0.0,0
40.752013,-73.975055,Bagel Market,New York,NY,Unknown Street,0.0,0
40.7436151,-73.9863949,Birch Coffee,New York,NY,East 27th Street 21,0.0,0
40.7189006,-74.0025174,Starbucks,New York,NY,Broadway 405,0.0,0
40.740124,-74.0014925,MatchaBar,New York,NY,West 15th Street 256,0.0,0
40.7572001,-73.983437,Cook Eatery,New York,NY,West 45th Street 115,0.0,0
40.7290876,-73.9982833,Joe Coffee Company,New York,NY,LaGuardia Place 550,0.0,0
40.7206037,-73.984423,Boba Guys,New York,NY,Clinton Street 23,0.0,0
40.7564367,-73.971716,New York Luncheonette,New York,NY,Unknown Street,0.0,0
40.7546713,-73.9745591,Financier,New York,NY,Unknown Street,0.0,0
40.7064444,-74.0079647,Black Fox coffee co.,New York,NY,Unknown Street,0.0,0
40.7526386,-73.9845169,Mangia Organic,New York,NY,West 39th Street 45,0.0,0
40.7202282,-73.9965346,Stone Street,New York,NY,Broome Street 379,0.0,0
40.742213,-73.9895802,Eataly,New York,NY,5th Avenue 200,0.0,0
40.8285671,-73.9485323,Chipped Cup Coffee & Victuals,New York,NY,Broadway 3610,0.0,0
40.7212663,-74.0005133,Think Coffee,New York,NY,Broadway 471,0.0,0
40.7443091,-73.9966612,Doughnut Plant,New York,NY,West 23rd Street 220,0.0,0
40.7461999,-73.978007,Semicolon,New York,NY,3rd Avenue 516A,0.0,0
40.7545627,-73.9839414,Breads Bakery,New York,NY,Unknown Street,0.0,0
40.7534774,-73.9842882,Joe Coffee Company,New York,NY,Unknown Street,0.0,0
40.7185107,-73.9862303,Davelle NYC,New York,NY,Suffolk Street 102,0.0,0
40.7597637,-73.9698075,Le Cafe Coffee,New York,NY,Lexington Avenue 661,0.0,0
40.7289162,-74.0054734,Getting Hungry,New York,NY,Varick Street 225,0.0,0
40.7202995,-73.9952147,Cafe Integral,New York,NY,Unknown Street,0.0,0
40.7146942,-73.9986811,Silk Road Cafe,New York,NY,Unknown Street,0.0,0
40.7141971,-73.9937931,Unknown Coffee Shop,New York,NY,Unknown Street,0.0,0
40.8075501,-73.9636821,Joe Coffee Company,New York,NY,Broadway 2950,0.0,0
40.7638732,-73.9665249,Birch Coffee,New York,NY,East 62nd Street 134 1/2,0.0,0
40.7434433,-73.9800242,Birch Coffee,New York,NY,3rd Avenue 432,0.0,0
40.7073526,-74.0022569,Café Patoro,New York,NY,Front Street 223,0.0,0
40.7313359,-73.9919775,The Bean,New York,NY,Broadway 771,0.0,0
40.704646,-74.0084317,Bluestone Lane,New York,NY,Unknown Street,0.0,0
40.7073586,-74.0022266,Cafe Patoro,New York,NY,Front Street 223,0.0,0
40.7056733,-74.0083741,La Colombe Coffee Roasters,New York,NY,Wall Street 69B,0.0,0
40.7520894,-73.9900673,The Bread Factory Cafe,New York,NY,Unknown Street,0.0,0
40.7472688,-73.9841528,Captain's Cafe,New York,NY,Unknown Street,0.0,0
40.7188835,-74.0101049,Chanson le Salon,New York,NY,Unknown Street,0.0,0
40.7075935,-74.0021812,Made Fresh Daily,New York,NY,Unknown Street,0.0,0
40.7061594,-74.008845,Starbucks,New York,NY,Unknown Street,0.0,0
40.8001351,-73.9677641,Plowshares Coffee Roasters,New York,NY,Broadway 2730,0.0,0
40.7080709,-74.0137437,Siena Bakehouse,New York,NY,Greenwich Street 94,0.0,0
40.7631599,-74.0005711,Unknown Coffee Shop,New York,NY,Unknown Street,0.0,0
40.7469708,-73.9853055,Ginseng Museum Cafe,New York,NY,5th Avenue 315,0.0,0
40.7144862,-73.9821342,Ost Cafe,New York,NY,Unknown Street,0.0,0
40.7037798,-74.0109286,Le Pain Quotidien,New York,NY,Unknown Street,0.0,0
40.7036165,-74.0103766,Ground Central,New York,NY,Unknown Street,0.0,0
40.7349281,-74.0022788,Partners Coffee,New York,NY,Charles Street 44,0.0,0
40.7041988,-74.0117201,Gregorys Coffee,New York,NY,Unknown Street,0.0,0
40.7069204,-74.0067667,Juice Generation,New York,NY,Maiden Lane 101,0.0,0
40.7273626,-73.9888015,787 Coffee,New York,NY,2nd Avenue 101,0.0,0
40.7351434,-73.9897998,Starbucks,New York,NY,Unknown Street,0.0,0
40.7050363,-74.0068254,Gregorys Coffee,New York,NY,Wall Street 100,0.0,0
40.7407674,-73.9918982,Unknown Coffee Shop,New York,NY,Unknown Street,0.0,0
40.7039608,-74.0118856,Café Grumpy,New York,NY,Stone Street 20,0.0,0
40.7270679,-73.9893826,Coffee Project NY,New York,NY,East 5th Street 239,0.0,0
40.7290639,-73.9784477,The Roost,New York,NY,Avenue B 222,0.0,0
40.8105082,-73.9395267,OurtBox Cafe,New York,NY,Unknown Street,0.0,0
40.7684196,-73.9851251,Amore Pizza Cafe,New York,NY,West 58th Street 370,0.0,0
40.7624366,-73.9739908,Starbucks,New York,NY,Madison Avenue 600,0.0,0
40.7327767,-73.9910309,Outro,New York,NY,Broadway 816,0.0,0
40.73265,-73.9914016,Hex & Co.,New York,NY,Broadway 801,0.0,0
40.7786181,-73.9559843,Starbucks,New York,NY,Lexington Avenue 1261,0.0,0
40.7081578,-74.0139728,Unknown Coffee Shop,New York,NY,Rector Street 16,0.0,0
40.7209019,-73.9946997,Black Seed Bagels,New York,NY,Elizabeth Street 170,0.0,0
40.7130523,-74.0096369,Aroma Espresso Bar,New York,NY,Unknown Street,0.0,0
40.7175925,-73.9971381,Sweet Moment,New York,NY,Mott Street 106,0.0,0
40.7417897,-73.9807467,Starbucks,New York,NY,East 28th Street 200,0.0,0
40.7577198,-73.9631297,Sutton Cafe Restaurant,New York,NY,1st Avenue,0.0,0
40.7192673,-74.0060718,Cafe Clementine,New York,NY,West Broadway 227,0.0,0
40.7485816,-73.9863247,Kawande Martin Cafe,New York,NY,West 33rd Street,0.0,0
40.7420228,-74.005159,Creamline,New York,NY,9th Avenue 75,0.0,0
40.7207973,-73.9972546,The Lost Draft,New York,NY,Broome Street 398,0.0,0
40.7198938,-74.0038297,La Colombe Coffee Roasters,New York,NY,Church Street 319,0.0,0
40.7525184,-73.9860712,Tim Hortons,New York,NY,Unknown Street,0.0,0
40.7149276,-73.9983164,Mee Sum Cafe,New York,NY,Pell Street 26,0.0,0
40.727163,-73.9999069,Morgenstern's Finest Ice Cream,New York,NY,West Houston Street 88,0.0,0
40.7292145,-73.9981725,Chihiro Tea,New York,NY,LaGuardia Place 552,0.0,0
40.7191024,-73.9970647,Ferrara,New York,NY,Grand Street 195,0.0,0
40.720329,-73.9967563,Cafe Roma,New York,NY,Broome Street 385,0.0,0
40.7388326,-73.9955295,Blank Street Coffee,New York,NY,6th Avenue 590,0.0,0
40.7384445,-73.9958164,Think Coffee,New York,NY,6th Avenue 568,0.0,0
40.7667816,-73.9564416,Coffee Inn,New York,NY,1st Avenue 1302,0.0,0
40.8012383,-73.9421403,Bitter Orange Cafe,New York,NY,Park Avenue 1694,0.0,0
40.8006177,-73.9426122,UGC Eats,New York,NY,Park Avenue 1674,0.0,0
40.7971288,-73.9384911,Capy,New York,NY,East 116th Street 242,0.0,0
40.8242066,-73.9456088,Sugar Hill Café,New York,NY,West 145th Street 410,0.0,0
40.7538023,-73.9851089,L’Adresse American Bistro,New York,NY,Unknown Street,0.0,0
40.7505545,-73.9702839,Mona,New York,NY,Unknown Street,0.0,0
40.7087364,-74.0069962,Voyager Espresso,New York,NY,William Street 110,0.0,0
40.7448363,-74.0028199,La Bergamote,New York,NY,9th Avenue 177,0.0,0
40.7251418,-73.98162,C&B,New York,NY,East 7th Street 178,0.0,0
40.7270961,-73.993997,Honeybrains,New York,NY,Lafayette Street 372,0.0,0
40.7294568,-73.9881288,Cha-An Teahouse,New York,NY,East 9th Street 230,0.0,0
40.7242595,-74.0019929,Ground Support Café,New York,NY,West Broadway 399,0.0,0
40.7392879,-74.001853,Big Famous Deli & Grocery,New York,NY,Unknown Street,0.0,0
40.7620536,-73.9910987,Al Horno,New York,NY,Unknown Street,0.0,0
40.8510936,-73.9384166,Starbucks,New York,NY,West 181st Street 803,0.0,0
40.715278,-74.0074529,Hungry Ghost,New York,NY,Church Street 165,0.0,0
40.719848,-74.0049417,Starbucks,New York,NY,Unknown Street,0.0,0
40.755117,-73.9909801,Corvo Coffee,New York,NY,West 39th Street 270,0.0,0
40.7554688,-73.9707954,The Picnic Basket,New York,NY,Unknown Street,0.0,0
40.7564172,-73.9802703,Pavé,New York,NY,Unknown Street,0.0,0
40.705529,-74.008115,Joe & The Juice,New York,NY,Wall Street 65E,0.0,0
40.739498,-74.007702,Unknown Coffee Shop,New York,NY,Gansevoort Street 73,0.0,0
40.7579702,-73.9838946,Margon Restaurant,New York,NY,West 46th Street 136,0.0,0
40.8003172,-73.9618481,Demitasse Cafe,New York,NY,Columbus Avenue 973,0.0,0
40.7827225,-73.9479691,Burp Bowl Cafe,New York,NY,2nd Avenue 1812,0.0,0
40.7530461,-73.9840983,Blue Bottle Coffee,New York,NY,West 40th Street 54,0.0,0
40.7216695,-73.9873956,Ludlow Coffee Supply,New York,NY,Ludlow Street 176,0.0,0
40.7291434,-73.999255,Debutea,New York,NY,Thompson Street 217,0.0,0
40.7827156,-73.9484523,Starbucks,New York,NY,East 93rd Street 245,0.0,0
40.7628613,-73.985265,Bibble & Sip,New York,NY,West 51st Street 253,0.0,0
40.7292335,-73.9814002,Boris and Horton,New York,NY,Avenue A 195,0.0,0
40.7268161,-73.9831737,Starbucks,New York,NY,Saint Mark's Place 125,0.0,0
40.7265689,-73.9996226,Birch Coffee,New York,NY,West Houston Street 71,0.0,0
40.7802595,-73.9635992,American Wing Café,New York,NY,Unknown Street,0.0,0
40.7791519,-73.9644503,Petrie Court Café,New York,NY,Unknown Street,0.0,0
40.736787,-73.9869081,Irving Farm Coffee Roasters,New York,NY,Irving Place 71,0.0,0
40.7355345,-73.9797733,Tal Bagels,New York,NY,1st Avenue 357,0.0,0
40.777498,-73.9503988,Tal Bagels,New York,NY,East 86th Street 333,0.0,0
40.7744439,-73.9544897,H&H Midtown Bagels East,New York,NY,2nd Avenue 1551,0.0,0
40.7861849,-73.9726071,H&H Midtown Bagels East,New York,NY,Columbus Avenue 526,0.0,0
40.7257638,-74.0011009,Chobani SoHo,New York,NY,Prince Street 152,0.0,0
40.7542367,-73.9889033,Café Grumpy,New York,NY,West 39th Street 200,0.0,0
40.7521444,-73.9757163,Café Grumpy,New York,NY,East 42nd Street 89,0.0,0
40.7778553,-73.9782475,Zucker's Bagels & Smoked Fish,New York,NY,Columbus Avenue 273,0.0,0
40.7874897,-73.953786,Champignon Café,New York,NY,Madison Avenue 1389,0.0,0
40.7876673,-73.954025,Da Capo Aperitivo e Caffe,New York,NY,Madison Avenue 1392,0.0,0
40.8690737,-73.9158442,Cafe Tabaco and Ron,New York,NY,West 214th Street 501,0.0,0
40.8693627,-73.9155908,Sahara Cafe,New York,NY,10th Avenue 4026,0.0,0
40.8657529,-73.9272044,Starbucks,New York,NY,Broadway 4761,0.0,0
40.7523028,-73.9784305,Blue Bottle Coffee,New York,NY,East 42nd Street 60,0.0,0
40.7106548,-74.0121277,Blue Bottle Coffee,New York,NY,Greenwich Street 150,0.0,0
40.7340809,-73.9924617,Blue Bottle Coffee,New York,NY,University Place 101,0.0,0
40.7596136,-73.9754488,Blue Bottle Coffee,New York,NY,East 53rd Street 10,0.0,0
40.7795258,-73.9507703,JJ Brown Cup,New York,NY,2nd Avenue 1707,0.0,0
40.7452186,-73.9902413,Patent Coffee,New York,NY,West 27th Street 49,0.0,0
40.7593056,-73.9921933,ViVi Bubble Tea,New York,NY,9th Avenue 607,0.0,0
40.7189834,-74.0009997,Dreamers Coffee,New York,NY,Unknown Street,0.0,0
40.7376051,-73.9875777,Daily Provisions,New York,NY,East 19th Street 103,0.0,0
40.7518535,-73.9733935,Le Pain Quotidien,New York,NY,3rd Avenue 685,0.0,0
40.7524881,-73.9880033,Bluestone Lane,New York,NY,Unknown Street,0.0,0
40.7945777,-73.9337278,Love Cafe,New York,NY,Pleasant Avenue 283,0.0,0
40.7266858,-73.9959215,CoCo Fresh Tea & Juice,New York,NY,Broadway 643,0.0,0
40.726876,-73.995752,Gregory's Coffee,New York,NY,Broadway 649,0.0,0
40.726208,-73.9954844,Cafe Angelique,New York,NY,Bleecker Street 68,0.0,0
40.7275742,-73.993705,Lafayette Grand Café & Bakery,New York,NY,Lafayette 380,0.0,0
40.7634155,-73.9654893,Upper East Café,New York,NY,Unknown Street,0.0,0
40.7257887,-74.0011724,La Colombe Coffee Roasters,New York,NY,Prince Street 154,0.0,0
40.7163524,-73.9981687,Ten Ren,New York,NY,Mott Street 75,0.0,0
40.7512755,-73.9793045,Taylor St. Baristas,New York,NY,east 40th street 33,0.0,0
40.7521357,-73.9915345,Madman Espresso,New York,NY,West 35th Street 234,0.0,0
40.7793161,-73.9808861,Blue Bottle Coffee,New York,NY,Amsterdam Avenue 279,0.0,0
40.7560886,-73.9926331,Aleef Coffee House Inc,New York,NY,West 39th Street 333,0.0,0
40.7793832,-73.9829974,Tea Magic,New York,NY,Unknown Street,0.0,0
40.7515815,-74.0053292,La Colombe Coffee Roasters,New York,NY,West 27th Street 601,0.0,0
40.7291067,-73.9839653,Black Seed Bagels,New York,NY,1st Avenue 176,0.0,0
40.7456636,-73.9884874,Black Seed Bagels,New York,NY,Broadway 1188,0.0,0
40.7296485,-73.9988026,Irving Farm Coffee Roasters,New York,NY,West 3rd Street 78,0.0,0
40.8055083,-73.9653737,Oren's Daily Roast,New York,NY,Broadway 2882,0.0,0
40.7718742,-73.9563636,Pick-A-Bagel,New York,NY,2nd Avenue 1475,0.0,0
40.7720548,-73.9608314,Joe Coffee Company,New York,NY,Lexington Avenue 1045,0.0,0
40.7750206,-73.9803155,Joe Coffee Company,New York,NY,Columbus Avenue 187,0.0,0
40.7803846,-73.9533857,Birch Coffee,New York,NY,East 88th Street 171,0.0,0
40.7807678,-73.9523027,Bagels & More,New York,NY,3rd Avenue 1585,0.0,0
40.7465581,-73.9814145,Le Pain Quotidien,New York,NY,Park Avenue 3,0.0,0
40.7922821,-73.9406837,Dear Mama Coffee,New York,NY,East 109th Street 308,0.0,0
40.7270509,-73.9801128,Ninth Street Espresso,New York,NY,East 10th Street 341,0.0,0
40.7273043,-74.0059691,Seven Grams Caffé,New York,NY,Varick Street 175,0.0,0
40.7146071,-73.9924298,"Happy Express Cafe, Inc.",New York,NY,Allen Street 6,0.0,0
40.8066955,-73.9638287,Café East,New York,NY,Unknown Street,0.0,0
40.8067796,-73.9637662,Blue Java,New York,NY,Unknown Street,0.0,0
40.8071136,-73.9649082,Starbucks,New York,NY,Broadway 2929,0.0,0
40.7792964,-73.9533764,Le Pain Quotidien,New York,NY,3rd Avenue 1535,0.0,0
40.7761994,-73.9815882,Noi Due Cafe,New York,NY,West 69th Street 143,0.0,0
40.7027759,-74.012773,Starbucks,New York,NY,Unknown Street,0.0,0
40.7715971,-73.9611763,Colomba Coffee,New York,NY,Lexington Avenue 1031,0.0,0
40.7035005,-74.0129805,Flavors,New York,NY,Whitehall Street 27,0.0,0
40.7061538,-74.0128132,Gregory’s Coffee,New York,NY,Broadway 42,0.0,0
40.711896,-74.0005122,Madison Bagel & Grill,New York,NY,Madison Street 5,0.0,0
40.707216,-74.008596,Koyzina Kafe,New York,NY,William Street 62,0.0,0
40.7090861,-74.0070176,Open Kitchen,New York,NY,Unknown Street,0.0,0
40.711246,-74.0063142,Variety Coffee,New York,NY,Nassau Street 140,0.0,0
40.7102157,-74.0057019,Dante’s,New York,NY,William Street 166,0.0,0
40.7093091,-74.0068103,BentOn Cafe,New York,NY,Unknown Street,0.0,0
40.7095297,-74.0119738,Lazzaro,New York,NY,Trinity Place 110,0.0,0
40.7094109,-74.0120305,Hank’s Pizza,New York,NY,Trinity Place 110,0.0,0
40.7083708,-74.0074301,Starbucks,New York,NY,William Street 100,0.0,0
40.7070318,-74.0080353,Pita Press,New York,NY,Cedar Street 25,0.0,0
40.7082492,-74.0101892,Manon Cafe,New York,NY,Unknown Street,0.0,0
40.7073322,-74.0059333,Sons of Thunder,New York,NY,Pearl Street 225,0.0,0
40.7113076,-74.016162,Le Pain Quotidien,New York,NY,Unknown Street,0.0,0
40.8442897,-73.9424117,Hilltop Perk,New York,NY,Haven Avenue 83,0.0,0
40.758148,-73.9824848,Starbucks,New York,NY,6th Avenue 1185,0.0,0
40.7596521,-73.9852254,Starbucks,New York,NY,Broadway 1585,0.0,0
40.7154345,-74.01633,Le Pain Quotidien,New York,NY,Unknown Street,0.0,0
40.7202527,-73.9983375,Maman,New York,NY,Centre Street 239,0.0,0
40.7433245,-73.9901642,Maman,New York,NY,Unknown Street,0.0,0
40.7544586,-73.9764655,Moka Matcha,New York,NY,East 45th Street 81,0.0,0
40.7430002,-73.9966979,Matto Espresso,New York,NY,7th Avenue 188,0.0,0
40.7572238,-73.9807255,Robusta Espresso Bar,New York,NY,West 47th Street 44,0.0,0
40.7186713,-74.0005149,Kaigo Coffee Room,New York,NY,Lafayette Street 120C,0.0,0
40.7294715,-73.9844822,Veniero's Pasticceria & Caffé,New York,NY,East 11th Street 342,0.0,0
40.7913646,-73.9513622,Superior Café,New York,NY,Madison Avenue 1490,0.0,0
40.7541518,-73.9861387,Le Café Coffee,New York,NY,Broadway 1440,0.0,0
40.7603546,-73.9611323,Starbucks,New York,NY,1st Avenue 1102,0.0,0
40.7681491,-73.9853167,Birch Coffee,New York,NY,9th Avenue 884,0.0,0
40.7108654,-74.0059234,Birch Coffee,New York,NY,Spruce Street 8,0.0,0
40.7535315,-73.9874051,Heytea,New York,NY,Broadway 1407,0.0,0
40.7378288,-74.0047228,Rebel Coffee,New York,NY,8th Avenue 19,0.0,0
40.7153768,-73.9980301,Mango Mango,New York,NY,Bayard Street 63,0.0,0
40.7291946,-73.9886324,Mango Mango Dessert,New York,NY,Saint Marks Place 23,0.0,0
40.7191116,-73.9963326,Yaya Tea,New York,NY,Grand Street 206,0.0,0
40.7632811,-73.9939987,Jolly Goat Coffee,New York,NY,West 47th Street 515,0.0,0
40.7566505,-73.9841404,cafe un deux trois,New York,NY,Unknown Street,0.0,0
40.7435856,-74.0032089,Stone Street Coffee Company,New York,NY,Unknown Street,0.0,0
40.7224336,-74.0034695,Sanctuary T,New York,NY,Unknown Street,0.0,0
40.7099202,-74.0091218,CoCo Fresh Tea & Juice,New York,NY,John Street 12,0.0,0
40.766411,-73.991661,La Bergamote,New York,NY,West 52nd Street 515,0.0,0
40.7627635,-73.9779699,Joe & The Juice,New York,NY,6th Avenue 1350,0.0,0
40.7288312,-73.9866503,Cabin on 9th,New York,NY,East 9th Street 312,0.0,0
40.7278638,-74.001067,Banter,New York,NY,Sullivan Street 169,0.0,0
40.7632916,-73.9626295,B&B Bagels,New York,NY,2nd Avenue 1201,0.0,0
40.7928702,-73.9410205,Raspberry Deli & Grocery,New York,NY,2nd Avenue 2127,0.0,0
40.7635715,-73.9670304,Pick a Bagel,New York,NY,Lexington Avenue 785,0.0,0
40.7657733,-73.9657807,Panda Bubble Tea,New York,NY,Lexington Avenue 858,0.0,0
40.71729,-73.9996503,Sweets Bakery,New York,NY,Walker Street 131,0.0,0
40.7347592,-73.9925643,Nutella café,New York,NY,Unknown Street,0.0,0
40.748044,-73.9873353,caffé bene,New York,NY,West 32nd Street 39,0.0,0
40.7252668,-73.984294,Juicy Lucy,New York,NY,Avenue A 85,0.0,0
40.7473548,-73.9862282,Paris Baguette,New York,NY,West 32nd Street 6,0.0,0
40.7119876,-73.9945141,A2Z Dominican,New York,NY,Market Street 47,0.0,0
40.7138584,-73.990386,12 Corners,New York,NY,East Broadway 155,0.0,0
40.7197029,-73.9884286,Caffè Vita,New York,NY,Ludlow Street 124,0.0,0
40.7200481,-73.9902485,Joey Bats Café,New York,NY,Allen Street 129,0.0,0
40.7208818,-73.9898439,Kabisera,New York,NY,Allen Street 151,0.0,0
40.765555,-73.9655855,Hale and Hearty Soups,New York,NY,Lexington Avenue 849,0.0,0
40.7151944,-73.9975111,ViVi Bubble Tea,New York,NY,Bayard Street 49,0.0,0
40.7438479,-73.9954656,ViVi Bubble Tea,New York,NY,West 23rd Street 170,0.0,0
40.7474567,-73.9865203,Gong Cha,New York,NY,West 32nd Street 12,0.0,0
40.7156257,-73.9982259,Chicha San Chen NY,New York,NY,Bayard Street 72,0.0,0
40.7136566,-73.9974429,ViVi Bubble Tea,New York,NY,East Broadway 2,0.0,0
40.7823302,-73.9811871,Mille-Feuille Bakery Cafe,New York,NY,Broadway 2173,0.0,0
40.7105042,-74.0091441,Gong Cha,New York,NY,Fulton Street 200,0.0,0
40.7906349,-73.9519553,Starbucks,New York,NY,Unknown Street,0.0,0
40.7871321,-73.9544023,Starbucks,New York,NY,Madison Avenue 1378,0.0,0
40.7204867,-73.9842269,Koneko Cat Cafe,New York,NY,Clinton Street 26,0.0,0
40.7429857,-73.9733767,Kimmel Bar,New York,NY,Unknown Street,0.0,0
40.7312029,-73.9899196,Irving Farm New York,New York,NY,East 10th Street 79,0.0,0
40.7620218,-73.9803454,Cafe 53,New York,NY,Unknown Street,0.0,0
40.7463142,-73.9799924,Utopia Bagels,New York,NY,East 34th Street 120,0.0,0
40.7776871,-73.9783679,Tap NYC,New York,NY,Columbus Avenue 267,0.0,0
40.7431214,-73.9802602,16 Handles,New York,NY,Unknown Street,0.0,0
40.7541973,-73.9738747,Dae Dae,New York,NY,Lexington Avenue 485,0.0,0
40.7363825,-74.0060719,MeMe,New York,NY,Hudson Street 581,0.0,0
40.7716285,-73.9657301,Ralph's Coffee,New York,NY,Madison Avenue 888,0.0,0
40.7734593,-73.9598061,Starbucks,New York,NY,Lexington Avenue 1095,0.0,0
40.7422489,-73.9831597,Black Press Coffee,New York,NY,Lexington Avenue 100,0.0,0
40.7231443,-73.9947458,Café Gitane,New York,NY,Mott Street 242,0.0,0
40.7295309,-74.0015887,Porto Rico Importing Co.,New York,NY,Bleecker Street 201,0.0,0
40.7685868,-73.9826634,Tartinery,New York,NY,Columbus Circle 10,0.0,0
40.758854,-73.9883847,Sugar Factory,New York,NY,8th Avenue 694,0.0,0
40.7443072,-73.9861386,Bourke Street Bakery,New York,NY,East 28th Street 15,0.0,0
40.7402583,-73.9896881,Joe & the Juice,New York,NY,Broadway 929,0.0,0
40.7303245,-73.9895846,ViVi Bubble Tea,New York,NY,3rd Avenue 30,0.0,0
40.7286956,-73.9787601,B Cup Café,New York,NY,Avenue B 512,0.0,0
40.7643238,-73.9887289,The Coffee Pot,New York,NY,West 51st Street 403,0.0,0
40.7518367,-73.9902569,Starbucks,New York,NY,7th Avenue 462,0.0,0
40.8157311,-73.9451417,Acts III Bagels,New York,NY,West 135th Street 236,0.0,0
40.7398248,-73.977416,Proof Coffee Roasters,New York,NY,Unknown Street,0.0,0
40.7639054,-73.977729,Zibetto Espresso Bar,New York,NY,6th Avenue 1385,0.0,0
40.7472769,-73.9750012,Unknown Coffee Shop,New York,NY,Unknown Street,0.0,0
40.8029397,-73.956201,Cafe Frederick,New York,NY,Frederick Douglass Boulevard 2104,0.0,0
40.7335428,-74.0039268,Matchaful,New York,NY,Christopher Street 87,0.0,0
40.7149012,-73.9986222,Miss Du’s Tea Shop,New York,NY,Pell Street 33,0.0,0
40.7263237,-73.9838601,787 Coffee Co.,New York,NY,East 7th Street 131,0.0,0
40.7340227,-74.0005435,ad hoc collective coffee + shoppe,New York,NY,Christopher Street 15,0.0,0
40.7602787,-73.9907472,Bird & Branch,New York,NY,West 45th Street 359,0.0,0
40.7531459,-73.9851227,Starbucks,New York,NY,6th Avenue 1040,0.0,0
40.7177214,-73.992045,The Grand Daddy,New York,NY,Grand Street 290,0.0,0
40.7627483,-73.9738435,Blue Box Cafe - Tiffany,New York,NY,5th Avenue 727,0.0,0
40.6988989,-74.038919,Ellis Island Cafe,New York,NY,Unknown Street,0.0,0
40.7522199,-74.0017007,Think Coffee,New York,NY,West 30th Street 500,0.0,0
40.7462448,-73.9894965,Paper,New York,NY,Unknown Street,0.0,0
40.7456554,-73.9880474,Stumptown Coffee Roasters,New York,NY,Unknown Street,0.0,0
40.735804,-73.9926767,Le Café coffee,New York,NY,Unknown Street,0.0,0
40.7541498,-73.9787021,Le Pain Quotidien,New York,NY,Unknown Street,0.0,0
40.7555697,-73.9802192,Starbucks,New York,NY,West 45th 2,0.0,0
40.7578879,-73.9831141,For five coffee roasters,New York,NY,Unknown Street,0.0,0
40.7570592,-73.9811663,Starbucks,New York,NY,West 46th Street 55,0.0,0
40.756182,-73.9810387,Manhattan,New York,NY,Unknown Street,0.0,0
40.7358148,-73.9976834,O Café,New York,NY,Unknown Street,0.0,0
40.7326818,-73.9902436,Paradis,New York,NY,4th Avenue 114,0.0,0
40.7347019,-73.9929545,Blue stripes,New York,NY,Unknown Street,0.0,0
40.757132,-73.9733698,Church Cafe Outside,New York,NY,Unknown Street,0.0,0
40.7571723,-73.9734536,Inside Park at St. Beet’s,New York,NY,Unknown Street,0.0,0
40.7581131,-73.974725,Pomme Palais Bakery and Coffee,New York,NY,East 51st Street 30,0.0,0
40.715754,-74.003128,Starbucks,New York,NY,Worth Street 111,0.0,0
40.7508895,-73.9978633,Cafe Bravo,New York,NY,Unknown Street,0.0,0
40.754399,-73.993352,The People's Forum,New York,NY,West 37th Street 320,0.0,0
40.7676839,-73.9528947,Claire's Kitchen Cafe,New York,NY,Unknown Street,0.0,0
40.7654726,-73.9581504,MATTO,New York,NY,East 68th Street 359,0.0,0
40.7663291,-73.9599375,Gotham Café,New York,NY,2nd Avenue 1298,0.0,0
40.7526738,-73.9950505,Starbucks,New York,NY,West 34th Street 330,0.0,0
40.7700555,-73.9516342,Zuri Coffee,New York,NY,York Avenue 1443,0.0,0
40.7716694,-73.9529322,East Side Bagel Cafe,New York,NY,1st Avenue 1496,0.0,0
40.7327461,-73.9883025,Everyman Espresso,New York,NY,East 13th Street 134,0.0,0
40.7138499,-73.9908808,Kopitiam Malaysian Coffee,New York,NY,East Broadway 151,0.0,0
40.7276892,-74.0004432,Unknown Coffee Shop,New York,NY,Unknown Street,0.0,0
40.7592498,-73.9527737,Jupioca,New York,NY,Main Street 455,0.0,0
40.7418737,-73.9933052,Starbucks,New York,NY,6th Avenue 684,0.0,0
40.7598078,-73.9876125,Patis,New York,NY,Unknown Street,0.0,0
40.7635914,-73.9947575,Sullivan Street Bakery,New York,NY,Unknown Street,0.0,0
40.783644,-73.9777252,Bluestone Lane,New York,NY,Amsterdam Avenue 417,0.0,0
40.7646846,-73.9665681,Starbucks,New York,NY,Lexington Avenue 822,0.0,0
40.7742751,-73.9808432,The Migrant Kitchen,New York,NY,Columbus Avenue 159,0.0,0
40.7399793,-73.9841814,Smile To Go,New York,NY,Lexington Avenue 23,0.0,0
40.7429989,-74.007331,Hearth on the High Line,New York,NY,High Line,0.0,0
40.7491928,-73.9751891,Starbucks,New York,NY,3rd Avenue 605,0.0,0
40.7473146,-74.0046803,Juban,New York,NY,Unknown Street,0.0,0
40.7795881,-73.9774283,Da Capo,New York,NY,Columbus Avenue 322,0.0,0
40.7178852,-74.0002468,Spring Cafe,New York,NY,Centre Street 153,0.0,0
40.7213951,-73.9880234,Bonsai Kakigori,New York,NY,Unknown Street,0.0,0
40.7272465,-73.9866334,Setsugekka,New York,NY,East 7th Street 74,0.0,0
40.7064892,-74.0041271,Beatnic,New York,NY,Front Street 181,0.0,0
40.7071884,-74.0030763,Big Gay Ice Cream,New York,NY,Unknown Street,0.0,0
40.7474576,-73.9917001,Hanamizuki,New York,NY,West 29th Street 143,0.0,0
40.7180129,-74.0019883,Sawada Coffee,New York,NY,Cortlandt Alley 33,0.0,0
40.7700367,-73.9623088,Joe & The Juice,New York,NY,Unknown Street,0.0,0
40.7189073,-73.9901737,Rise Brewing Company,New York,NY,Delancey Street 79,0.0,0
40.7169602,-73.9947013,Bambu,New York,NY,Hester Street 124,0.0,0
40.7512579,-73.9743148,Joe The Juice Coffee,New York,NY,3rd Avenue,0.0,0
40.7416427,-73.9903239,Starbucks,New York,NY,West 23rd Street 14,0.0,0
40.769443,-73.958137,Kravé Cafe and Juice Bar,New York,NY,2nd Avenue 1399,0.0,0
40.7398896,-73.9821488,Sunflower Cafe,New York,NY,3rd Avenue 335,0.0,0
40.7643995,-73.969084,Sant Ambroeus,New York,NY,Unknown Street,0.0,0
40.771859,-73.9592877,Joe & The Juice,New York,NY,Unknown Street,0.0,0
40.7210501,-73.997846,Despaña,New York,NY,Broome Street 408,0.0,0
40.7177378,-74.0000133,Kung Fu Tea,New York,NY,Unknown Street,0.0,0
40.7792219,-73.9479072,Mellow Yellow Coffee & Vibes,New York,NY,1st Avenue 1729,0.0,0
40.7330316,-73.9809522,Starbucks,New York,NY,1st Avenue 286,0.0,0
40.757792,-73.9796085,Starbucks,New York,NY,West 48th Street 28,0.0,0
40.7565007,-73.9778114,Cafe Alice,New York,NY,Unknown Street,0.0,0
40.7568104,-73.9811459,Café Cello,New York,NY,Unknown Street,0.0,0
40.7588628,-73.9789097,Starbucks,New York,NY,Unknown Street,0.0,0
40.7984981,-73.9686236,Picky Barista,New York,NY,Broadway 2680,0.0,0
40.7618661,-73.9730709,Unknown Coffee Shop,New York,NY,Unknown Street,0.0,0
40.7238897,-73.9967151,T2 tea,New York,NY,Unknown Street,0.0,0
40.78367,-73.9781784,Sandwell,New York,NY,Amsterdam Avenue 412,0.0,0
40.7880551,-73.9537505,Joe & The Juice,New York,NY,Madison Avenue 1400,0.0,0
40.7414369,-73.9744358,Argo Tea,New York,NY,Unknown Street,0.0,0
40.807773,-73.9531593,Zoe Café and Hookah Lounge,New York,NY,Unknown Street,0.0,0
40.7306776,-73.9952135,Kung Fu Tea,New York,NY,Waverly Place 31,0.0,0
40.7710875,-73.9905939,Li'l Jay's Cafe,New York,NY,11th Avenue 860,0.0,0
40.7404201,-73.9859376,Paris Baguette,New York,NY,Park Avenue South 303,0.0,0
40.7377576,-73.9878579,Union Square Cafe,New York,NY,Park Avenue South 235,0.0,0
40.7295928,-73.9788241,Kijitora,New York,NY,East 14th Street 534,0.0,0
40.7482654,-73.9884306,Biao Sugar,New York,NY,Broadway 1271,0.0,0
40.7442688,-73.9891139,Dr. Smood,New York,NY,Broadway 1151,0.0,0
40.8072257,-73.9596805,Publique,New York,NY,West 118th Street 420,0.0,0
40.7691681,-73.9882442,Starbucks,New York,NY,West 57th Street 475,0.0,0
40.7728466,-73.9898648,Starbucks,New York,NY,West End Avenue 21,0.0,0
40.8058245,-73.9412641,Serengeti Teas & Spices,New York,NY,22,0.0,0
40.7483337,-73.9937884,Ninth Street Espresso,New York,NY,West 29th Street 221,0.0,0
40.740175,-73.9868031,Starbucks,New York,NY,Park Avenue South 304,0.0,0
40.7402786,-73.9870432,Spin,New York,NY,East 23rd Street 48,0.0,0
40.7407221,-73.9880906,Snowfox Cafe,New York,NY,East 23rd Street 24,0.0,0
40.7553536,-73.9564818,The Café @ Cornell Tech,New York,NY,West Loop Road 2,0.0,0
40.7202081,-74.0021478,La Mercerie,New York,NY,Howard Street 53,0.0,0
40.7189613,-73.9859844,Bluestockings,New York,NY,Suffolk Street 116,0.0,0
40.7383947,-73.9825269,Pick a Bagel,New York,NY,Unknown Street,0.0,0
40.7190027,-73.9973094,Caffè Palermo,New York,NY,Mulberry Street 148,0.0,0
40.7171319,-73.9981749,Tiger Sugar,New York,NY,Canal Street 197,0.0,0
40.7364893,-73.9784178,Starbucks,New York,NY,East 23rd st 400,0.0,0
40.7222054,-73.9821254,Gaia Italian Cafè,New York,NY,East 3rd Street 226,0.0,0
40.7832576,-73.9475535,Madame Bonté Café,New York,NY,2nd Avenue 1834,0.0,0
40.7189751,-73.9947937,Prince Tea House,New York,NY,Bowery 134,0.0,0
40.7515183,-73.9949349,Starbucks,New York,NY,West 31st Street 383,0.0,0
40.7727091,-73.9816717,Le Pain Quotidien,New York,NY,West 65th Street 60,0.0,0
40.7753173,-73.9563154,Modern Bread and Bagel,New York,NY,3rd Avenue 1427,0.0,0
40.7773359,-73.9615905,E.A.T.,New York,NY,Madison Avenue 1064,0.0,0
40.717267,-73.9925517,S. Wan Cafe,New York,NY,Unknown Street,0.0,0
40.7780161,-73.978577,Black Press Coffee,New York,NY,Columbus Avenue 274,0.0,0
40.7452485,-73.9822953,Starbucks,New York,NY,Park Avenue South 424,0.0,0
40.7594589,-73.9700026,Starbucks,New York,NY,Lexington Avenue 655,0.0,0
40.7567499,-73.9726202,Starbucks,New York,NY,Lexington Avenue 560,0.0,0
40.7529752,-73.9747483,Ground Central,New York,NY,Lexington Avenue,0.0,0
40.7514356,-73.9764854,Gregorys Coffee,New York,NY,Unknown Street,0.0,0
40.7197342,-73.9991471,Starbucks,New York,NY,Lafayette 157,0.0,0
40.7935231,-73.9705072,PlantShed New York Flowers,New York,NY,Amsterdam Avenue 723,0.0,0
40.7137611,-74.009094,Starbucks,New York,NY,Church Street 120,0.0,0
40.7211682,-74.0085684,Interlude,New York,NY,Unknown Street,0.0,0
40.7526793,-73.992874,Starbucks,New York,NY,8th Avenue 494,0.0,0
40.7534341,-73.9928127,Essen,New York,NY,8th Avenue 519,0.0,0
40.7579172,-73.9890503,The Times Eatery,New York,NY,8th Avenue 680,0.0,0
40.7368812,-73.9848111,Eleni's Goods,New York,NY,3rd Avenue 238,0.0,0
40.7853877,-73.9791671,Royal Coffee,New York,NY,Broadway 2263,0.0,0
40.7898312,-73.9482267,Frenchy Cafe,New York,NY,East 102nd Street 129,0.0,0
40.7180873,-74.001073,Heytea,New York,NY,Lafayette Street 106,0.0,0
40.7749318,-73.9480822,Black Star Bakery & Cafe,New York,NY,York Avenue 1597,0.0,0
40.7655854,-73.981766,Joe & The Juice,New York,NY,Broadway 1758,0.0,0
40.7743106,-73.98082,Starbucks,New York,NY,Columbus Avenue 159,0.0,0
40.7741425,-73.9814385,Le Botaniste,New York,NY,Columbus Avenue 156,0.0,0
40.7476872,-73.9864866,Grace Street,New York,NY,West 32nd Street 17,0.0,0
40.7381183,-73.9838989,Think Coffee,New York,NY,3rd Avenue 280,0.0,0
40.7092166,-74.0141592,Starbucks,New York,NY,Carlisle Street 15,0.0,0
40.7132893,-74.0096484,Salad Box,New York,NY,Unknown Street,0.0,0
40.7538538,-73.9868085,Cook,New York,NY,Broadway 1412,0.0,0
40.7543258,-73.9871718,Starbucks,New York,NY,Broadway 1411,0.0,0
40.7169447,-73.994646,one cup tea,New York,NY,Hester Street 124,0.0,0
40.7148605,-74.0059829,Starbucks,New York,NY,Broadway 291,0.0,0
40.7535964,-73.9992946,Starbucks,New York,NY,West 33rd Street 450,0.0,0
40.7145719,-74.0171487,Laughing Man,New York,NY,Unknown Street,0.0,0
40.713932,-74.0164953,Cicci Di Carne,New York,NY,Unknown Street,0.0,0
40.7836736,-73.9523572,Bread N Wine,New York,NY,Lexington Avenue 1417,0.0,0
40.7486986,-73.9778705,Lucid Cafe,New York,NY,Lexington Avenue 311,0.0,0
40.7302461,-73.9904206,Bluestone Lane,New York,NY,Unknown Street,0.0,0
40.7476635,-73.9864189,Tea Makers,New York,NY,West 32nd Street 15,0.0,0
40.7297115,-73.9909671,Astor Plate,New York,NY,Unknown Street,0.0,0
40.7282924,-73.9891267,Le Petit Parisien,New York,NY,Unknown Street,0.0,0
40.7317675,-74.0064128,Oscar's Place,New York,NY,Unknown Street,0.0,0
40.7656124,-73.9570688,Yia Yia's Homemade Greek Food,New York,NY,East 69th Street 404,0.0,0
40.7306929,-73.9858959,Tompkins Square Bagels,New York,NY,2nd Avenue 184,0.0,0
40.768414,-73.9588952,Matto Espresso,New York,NY,2nd Avenue 1353,0.0,0
40.810303,-73.9526624,Starbucks,New York,NY,Saint Nicholas Avenue 284,0.0,0
40.7507114,-73.9868695,Brasserie Toast Cafe,New York,NY,6th Avenue 968,0.0,0
40.7672671,-73.9592472,Vivi Bubble Tea,New York,NY,2nd Avenue 1324,0.0,0
40.781057,-73.9525772,Marathon Coffee,New York,NY,3rd Avenue 1592,0.0,0
40.7671717,-73.9593112,le Réveil,New York,NY,2nd Avenue 1322,0.0,0
40.7715895,-73.956552,Ella's Cafe,New York,NY,2nd Avenue 1465,0.0,0
40.7181358,-73.9860644,Hawa Smoothies,New York,NY,Delancey Street 156,0.0,0
40.7168549,-73.9856403,GrandLo Cafe,New York,NY,Unknown Street,0.0,0
40.7175729,-73.9880757,Café d'Avignon,New York,NY,Unknown Street,0.0,0
40.8052243,-73.966289,Qahwah House,New York,NY,Broadway 2869,0.0,0
40.779167,-73.9560063,Paris Baguette,New York,NY,Lexington Avenue 1270,0.0,0
40.7761004,-73.9518782,Madame Bontè Café,New York,NY,East 84th Street 318,0.0,0
40.8149807,-73.9443109,PROOF Coffee Roasters,New York,NY,Unknown Street,0.0,0
40.8041731,-73.9541227,BO's Bagels,New York,NY,West 116th Street 235,0.0,0
40.7303032,-73.9839567,Saltwater Coffee,New York,NY,East 12th Street 345,0.0,0
40.7293965,-73.9868649,La Cabra,New York,NY,Unknown Street,0.0,0
40.7337757,-74.0054727,Oslo Coffee Roasters,New York,NY,Unknown Street,0.0,0
40.7400868,-73.9909032,Ralph's Coffee,New York,NY,5th Avenue 160,0.0,0
40.7297984,-73.9928785,The Donut Pub,New York,NY,Broadway 740,0.0,0
40.7293544,-73.989023,Beard Papa's,New York,NY,Saint Mark's Place 11,0.0,0
40.7290595,-73.9884404,N25 Nitro Tea & Coffee,New York,NY,Saint Mark's Place 27,0.0,0
40.7762901,-73.9542806,Cafè Blériot,New York,NY,East 83rd Street 226,0.0,0
40.7366185,-73.9815739,Oasis Cafe,New York,NY,2nd Avenue 362,0.0,0
40.7329596,-73.9859835,MooMooCha,New York,NY,East 14th Street 227,0.0,0
40.7977141,-73.9343965,Evelyn's Kitchen,New York,NY,1st Avenue 2137,0.0,0
40.7639375,-73.9667072,Joe & The Juice,New York,NY,Lexington Avenue 801,0.0,0
40.7651701,-73.9657768,Alice's Tea Cup,New York,NY,East 64th Street 156,0.0,0
40.7870041,-73.9540362,Grabstein's Bagels,New York,NY,East 96th Street 50,0.0,0
40.7809445,-73.954711,Tal Bagels,New York,NY,Lexington Avenue 1324,0.0,0
40.7210014,-73.9911028,The Hideout Chai Bar,New York,NY,Unknown Street,0.0,0
40.8167277,-73.9585099,Dear Mama,New York,NY,West 129th Street 611,0.0,0
40.7479431,-73.987102,Machi machi,New York,NY,West 32nd Street 33,0.0,0
40.7052164,-74.0091284,The Little Beet,New York,NY,Hanover Street 5,0.0,0
40.7525226,-73.9924763,Liberty Bagels Midtown,New York,NY,West 35th Street 260,0.0,0
40.7545045,-73.998504,Old Country Coffee,New York,NY,Unknown Street,0.0,0
40.7266373,-73.991949,Kettl,New York,NY,Unknown Street,0.0,0
40.7266017,-73.9919637,Current Coffee,New York,NY,Unknown Street,0.0,0
40.7771173,-73.9525218,Caroline's Donuts,New York,NY,2nd Avenue 1631,0.0,0
40.7747408,-73.9506866,Le Pain Quotidien,New York,NY,1st Avenue 1592,0.0,0
40.7591032,-73.9918725,Rind,New York,NY,Unknown Street,0.0,0
40.709544,-74.0085841,Healthy Green Juice Bar,New York,NY,Unknown Street,0.0,0
40.7162197,-73.9895853,Flower's Cafe,New York,NY,Essex Street 39,0.0,0
40.7156154,-73.9902595,Meow Parlour,New York,NY,Hester Street 46,0.0,0
40.7146689,-73.9981529,Art Bean Coffee Roasters,New York,NY,Doyers Street 19,0.0,0
40.7755074,-73.9536926,Bonjour Crepes & Waffles,New York,NY,2nd Avenue 1585,0.0,0
40.7624715,-73.9811369,Partners Coffee,New York,NY,West 52nd Street 152,0.0,0
40.759942,-73.9816372,Le Caffe Coffee,New York,NY,Unknown Street,0.0,0
40.7575756,-73.9790831,Maman,New York,NY,West 48th Street 12,0.0,0
40.7436657,-73.9738384,Starbucks,New York,NY,1st Avenue 591,0.0,0
40.7180009,-73.9989068,Spongies Cafe,New York,NY,Baxter Street 121,0.0,0
40.7179543,-73.9991906,Kam Hing Coffee Shop,New York,NY,Baxter Street 118,0.0,0
40.7927777,-73.9406366,Lamb's Bread,New York,NY,2nd Avenue 2128,0.0,0
40.7173256,-73.9944535,Bite of Hong Kong,New York,NY,Unknown Street,0.0,0
40.7798658,-73.9507315,Kafe Neo,New York,NY,East 89th Street 254,0.0,0
40.7291644,-73.9899477,Möge Tee,New York,NY,Cooper Square 69,0.0,0
40.6892365,-74.0184224,Joe Coffee,New York,NY,Unknown Street,0.0,0
40.7506032,-73.9713921,Remi43 Flower & Coffee,New York,NY,Unknown Street,0.0,0
40.7532096,-73.9983386,Black Fox Coffee Co.,New York,NY,West 33rd Street 438,0.0,0
40.7262473,-73.9911911,Three Jewels,New York,NY,Unknown Street,0.0,0
40.7514513,-73.9955788,Blue Bottle Coffee,New York,NY,Unknown Street,0.0,0
40.7225249,-73.9974462,Joe & The Juice,New York,NY,Spring Street 67,0.0,0
40.7663723,-73.9796629,Serafina,New York,NY,7th Avenue 922,0.0,0
40.7211027,-74.0039693,Matchaful,New York,NY,Unknown Street,0.0,0
40.7600809,-73.9921104,Frisson Espresso 44,New York,NY,Unknown Street,0.0,0
40.7351387,-73.9794032,Rosemary's Pantry,New York,NY,Unknown Street,0.0,0
40.7859285,-73.9847142,Unknown Coffee Shop,New York,NY,Unknown Street,0.0,0
40.7830092,-73.951819,La Librairie des Enfants Café,New York,NY,East 92nd Street 163,0.0,0
40.8066718,-73.9539564,Ganache Coffee,New York,NY,Frederick Douglass Boulevard 2213,0.0,0
40.7606653,-73.9786542,Starbucks,New York,NY,6th Avenue 1290,0.0,0
40.7312238,-73.9860512,Plantshed,New York,NY,2nd Avenue 139,0.0,0
40.7185168,-73.9938501,Cafecito,New York,NY,Unknown Street,0.0,0
40.7117738,-74.0116689,Épicerie Boulud,New York,NY,Unknown Street,0.0,0
40.7701027,-73.9918251,White Noise Coffee Co.,New York,NY,11th Avenue 829,0.0,0
40.7712328,-73.9930809,Le Cafe Coffee,New York,NY,Unknown Street,0.0,0
40.7177951,-73.9949335,New Kamboat Bakery & Cafe,New York,NY,Unknown Street,0.0,0
40.7183685,-73.9941338,Daronghua Bakery,New York,NY,Unknown Street,0.0,0
40.7184114,-73.994286,I'Milky,New York,NY,Unknown Street,0.0,0
40.7404973,-73.9816996,Matto Espresso,New York,NY,3rd Avenue 351,0.0,0
40.7518188,-73.9815906,The Library Café by Amy's Bread,New York,NY,5th Avenue 455,0.0,0
40.7084835,-74.0135243,Dragon Tea,New York,NY,Unknown Street,0.0,0
40.7328775,-73.9877118,Matto Espresso,New York,NY,3rd Avenue 110,0.0,0
40.7374343,-73.9903996,Venchi,New York,NY,Broadway 861,0.0,0
40.7400773,-73.989726,Le Pain Quotidien,New York,NY,Broadway 921,0.0,0
40.7382535,-73.9985079,Modern Bread and Bagel,New York,NY,West 14th Street 139,0.0,0
40.7325497,-73.9967931,Marlton Esprsso Bar,New York,NY,Unknown Street,0.0,0
40.7748669,-73.9542775,Hutch and Waldo,New York,NY,East 81st Street 247,0.0,0
40.7730659,-73.9910076,Harry's Table by Cipriani,New York,NY,Freedom Place South 235,0.0,0
40.7755174,-73.9566349,Maman,New York,NY,3rd Avenue 1424,0.0,0
40.7189289,-73.9948154,Matcha Cafe Maiko,New York,NY,Bowery 132,0.0,0
40.7296098,-73.9963468,Starbucks,New York,NY,West 4th Street 45,0.0,0
40.7449381,-73.9831337,Felix Roasting Co.,New York,NY,Park Avenue South 450,0.0,0
40.8137808,-73.9557256,Plowshares Coffee Roasters,New York,NY,Amsterdam Avenue 1351,0.0,0
40.7607909,-73.9911391,Jooy Tea Shoppe,New York,NY,9th Avenue 653,0.0,0
40.748382,-73.9878429,Early Edition Espresso Bar,New York,NY,West 32nd Street 49,0.0,0
40.7154382,-73.9982044,Yi Fang Tea,New York,NY,Bayard Street 67,0.0,0
40.7260837,-74.001279,Joe & The Juice,New York,NY,Prince Street 161,0.0,0
40.7404072,-74.0050369,Starbucks,New York,NY,Hudson Street 678,0.0,0
40.7850355,-73.951709,Matto Espresso,New York,NY,Lexington Avenue 1466,0.0,0
40.7515977,-73.9806682,Gregory’s,New York,NY,Unknown Street,0.0,0
40.7538903,-73.9961681,In Common NYC Cafe,New York,NY,9th Avenue 441,0.0,0
40.7579767,-73.9694536,Gregory’s coffee,New York,NY,3rd Avenue 880,0.0,0
40.7282617,-74.0051457,Gregory’s coffee,New York,NY,Unknown Street,0.0,0
40.7477192,-73.989028,Gregory’s coffee,New York,NY,West 31st Street 874,0.0,0
40.7338591,-73.9896639,Le Café Coffee,New York,NY,4th Avenue 145,0.0,0
40.7319019,-73.9863128,Butterdose,New York,NY,Unknown Street,0.0,0
40.773514,-73.9639139,The SisterYard,New York,NY,Madison Avenue 945,0.0,0
40.7510055,-73.9951268,Birch Coffee,New York,NY,Unknown Street,0.0,0
40.7197286,-73.9960952,Two Hands,New York,NY,Unknown Street,0.0,0
40.719466,-73.996191,The Chai Spot,New York,NY,Unknown Street,0.0,0
40.7638169,-73.9646685,Black Press Coffee,New York,NY,Unknown Street,0.0,0
40.7585176,-73.9629994,Frolla Cafè,New York,NY,1st Avenue 1045,0.0,0
40.7270841,-73.976867,Borris & Horton,New York,NY,Unknown Street,0.0,0
40.7685162,-73.9552447,B&B Bagels,New York,NY,1st Avenue 1370,0.0,0
40.8551748,-73.9377338,Buunni,New York,NY,Pinehurst Avenue 213,0.0,0
40.7531828,-74.0017525,Blue Bottle Coffee,New York,NY,Unknown Street,0.0,0
40.7839974,-73.9779504,Black Lab Cafe,New York,NY,Amsterdam Avenue 420,0.0,0
40.7055551,-74.0039605,Loco Coco,New York,NY,South Street 84,0.0,0
40.7453194,-73.9795124,Arvaci Ciffee,New York,NY,Unknown Street,0.0,0
40.7345114,-74.0006277,Jack's Stir Brew Coffee,New York,NY,West 10th Street 138,0.0,0
40.75534,-73.9909383,Berlina Café,New York,NY,8th Avenue 600,0.0,0
40.7264448,-74.0020207,Blank Slate,New York,NY,Unknown Street,0.0,0
40.7597563,-73.9881924,Bistro 46,New York,NY,Unknown Street,0.0,0
40.7663841,-73.9884166,Cafe 424,New York,NY,Unknown Street,0.0,0
40.735914,-74.0016986,Fellini Coffee,New York,NY,7th Avenue South 174,0.0,0
40.7161786,-73.9970795,Chun Yang Tea,New York,NY,26B,0.0,0
40.7615722,-73.983214,Gregory’s coffee,New York,NY,7th Avenue 762,0.0,0
40.7409445,-73.9762081,Platinum Plus Cafe,New York,NY,Unknown Street,0.0,0
40.7092141,-74.0088431,Simpl Coffee Shop,New York,NY,Unknown Street,0.0,0
40.7741135,-73.9593294,Angelina Paris,New York,NY,Lexington Avenue 1121,0.0,0
40.7644229,-73.9746,Palm Court,New York,NY,Unknown Street,0.0,0
40.7631731,-73.9733016,Tea room at BG,New York,NY,Unknown Street,0.0,0
40.7661833,-73.962362,Padoca Bakery,New York,NY,East 67th Street  210,0.0,0
40.7062991,-74.0033886,Cafe @ McNally Jackson Seaport,New York,NY,Unknown Street,0.0,0
40.7273122,-73.9842529,Ănjelly,New York,NY,Saint Marks Place 103,0.0,0
40.728556,-73.9879209,Poetica Coffee,New York,NY,2nd Avenue 131,0.0,0
40.7096711,-74.0087599,Tutto Calcio Espresso Bar,New York,NY,John Street 24,0.0,0
40.7094844,-74.008186,Matto Espresso,New York,NY,Unknown Street,0.0,0
40.7264761,-74.0020131,Blank Street Coffee,New York,NY,Unknown Street,0.0,0
40.7563121,-73.9997868,Paradis in the Park,New York,NY,Unknown Street,0.0,0
40.7782804,-73.982317,Gong Cha,New York,NY,Unknown Street,0.0,0
40.7356628,-74.0003498,Nadas Colombian Rainbow Empanadas,New York,NY,Greenwich Avenue 48,0.0,0
40.7517217,-73.987791,Starbucks,New York,NY,"Broadway, Suites 106 1359",0.0,0
40.7075238,-74.0110938,Tenthousand Coffee,New York,NY,Unknown Street,0.0,0
40.7724997,-73.9558893,Tozzo,New York,NY,2nd Avenue,0.0,0
40.7835933,-73.979832,Züri Coffee,New York,NY,Broadway 2218,0.0,0
40.7065445,-74.0112372,Blue Bottle Coffee,New York,NY,Broad Street 22,0.0,0
40.7142671,-74.008695,Birch Coffee,New York,NY,Unknown Street,0.0,0
40.7061571,-74.0056905,Starbucks,New York,NY,Water Street 155,0.0,0
40.7631111,-73.9591348,Da Adriano,New York,NY,1st Avenue 1198,0.0,0
40.7225587,-73.9884993,Beloved Café & Resto,New York,NY,Unknown Street,0.0,0
40.848325,-73.9309817,Milo Coffee Shop,New York,NY,Amsterdam Avenue 2440,0.0,0
40.7080354,-74.0105959,Ashby's,New York,NY,Unknown Street,0.0,0
40.7819547,-73.9759526,Green Park Deli & Pizza,New York,NY,West 79th Street 102,0.0,0
40.7163547,-74.0098581,Jack's Stir Brew Coffee,New York,NY,Unknown Street,0.0,0
40.7151337,-74.0081532,Chun Yang,New York,NY,Chambers Street 107,0.0,0
40.7801272,-73.9553231,Ole & Steen,New York,NY,Lexington Avenue 1280,0.0,0
40.7498599,-73.9874941,Capital One Café,New York,NY,West 34th Street 53,0.0,0
40.7543433,-74.0022171,Starbucks,New York,NY,Hudson Yards 34,0.0,0
40.7175462,-74.0104404,Cafe Clementine,New York,NY,Unknown Street,0.0,0
40.7630341,-73.9786396,Blue Bottle Coffee,New York,NY,Unknown Street,0.0,0
40.7350547,-74.0058686,Cafe Kitsune,New York,NY,Hudson Street 550,0.0,0
40.7207982,-73.9965628,Empanadas Soho,New York,NY,Mulberry Street 180,0.0,0
40.7300314,-73.986353,Hokkaido Baked Cheese Tart,New York,NY,Unknown Street,0.0,0
40.7525257,-73.9897468,Song Tea,New York,NY,Unknown Street,0.0,0
40.7536834,-73.9888962,Chocolate Dip,New York,NY,Unknown Street,0.0,0
40.754545,-73.9882746,Frame Gourmet Eatery,New York,NY,Unknown Street,0.0,0
40.7542503,-73.9878848,Gregory's Coffee,New York,NY,Unknown Street,0.0,0
40.7536851,-73.9884107,Starbucks,New York,NY,Unknown Street,0.0,0
40.7532206,-73.9887428,Café Hestia,New York,NY,Unknown Street,0.0,0
40.7801055,-73.950358,Crumbly Cafe & Bakery,New York,NY,2nd Avenue 1729,0.0,0
40.7663194,-73.9562871,Matto,New York,NY,Unknown Street,0.0,0
40.7599122,-73.9912526,Gregory’s,New York,NY,Unknown Street,0.0,0
40.7981602,-73.9695635,Zelma's Caffe,NewYork,NY,Broadway 2661,0.0,0
40.8031476,-73.9677965,Omonia Cafe,New York,NY,Broadway 2801,0.0,0
40.8014469,-73.964743,Möge Tee,New York,NY,Amsterdam Avenue 971,0.0,0
40.8015058,-73.9644654,Super Nice Coffee and Bakery,New York,NY,West 108th Street 196,0.0,0
40.7539389,-73.9887119,Italian Trattoria,New York,NY,Unknown Street,0.0,0
40.7248407,-73.9970753,Mangia,New York,NY,Broadway 588,0.0,0
40.7151538,-74.0056897,Matto Espresso,New York,NY,Broadway 299,0.0,0
40.7830689,-73.9511138,Increpeable,New York,NY,3rd Avenue 1654,0.0,0
40.791758,-73.9742519,Blank Street Coffee,New York,NY,Broadway 2461,0.0,0
40.7800682,-73.9802923,Frame,New York,NY,Unknown Street,0.0,0
40.7813256,-73.9794012,Joe & The Juice,New York,NY,Unknown Street,0.0,0
40.7182769,-73.9927278,Kodawari,New York,NY,Forsyth Street 100,0.0,0
40.8012634,-73.9593439,Mom's Food Market,New York,NY,Cathedral Parkway 321,0.0,0
40.8008299,-73.9575911,Purple Waves,New York,NY,West 110th Street 285,0.0,0
40.7915836,-73.9736788,Joe & The Juice,New York,NY,Broadway 2460,0.0,0
40.754069,-73.9849241,Cafe Zaiya,New York,NY,6th Avenue 1073,0.0,0
40.798879,-73.9615675,MACC Deli,New York,NY,West 106th Street 51,0.0,0
40.7538106,-73.9690686,Remi Flower & Coffee,New York,NY,2nd Avenue 906,0.0,0
40.7834343,-73.9794572,Irving Farm Coffee Roasters,New York,NY,West 79th Street 224,0.0,0
40.7794718,-73.9832116,Picky Barista,New York,NY,West 72nd Street 245,0.0,0
40.7242387,-73.9961964,La Cabra,New York,NY,Lafayette Street 284,0.0,0
40.7314777,-73.9942487,Wanpo Tea Shop,New York,NY,East 8th Street 37,0.0,0
40.7245453,-73.9943619,Pop’s Bagels,New York,NY,55,0.0,0
40.7109261,-74.0103462,Starbucks,New York,NY,Dey Street 22,0.0,0
40.7151445,-73.9931296,Round K by Sol,New York,NY,Canal Street 78,0.0,0
40.7201134,-73.9988044,Butler,New York,NY,Lafayette Street 177,0.0,0
40.7860409,-73.9780219,Westville,New York,NY,Broadway 2290,0.0,0
40.7833931,-73.9794128,Mochi Dolci & 222 Speakeasy,New York,NY,West 79th Street 222,0.0,0
40.7525798,-73.9744452,Madman Espresso,New York,NY,Unknown Street,0.0,0
40.7599242,-73.9700459,Café Olympia,New York,NY,Unknown Street,0.0,0
40.7233442,-74.0065729,drip coffee makers,New York,NY,Varick Street 75,0.0,0
40.7040496,-74.0076741,drip coffee makers,New York,NY,Old Slip Plaza 32,0.0,0
40.7256642,-73.9989626,Panther Coffee,New York,NY,Greene Street 131,0.0,0
40.7580219,-73.9628824,Marathon Coffee,New York,NY,1st Avenue 1042,0.0,0
40.7631664,-73.972521,Liberty Bagels,New York,NY,East 58th Street 16,0.0,0
40.7258776,-74.0036174,Sui Yoga Studio.Cafe,New York,NY,Unknown Street,0.0,0
40.783395,-73.9799783,Brunch,New York,NY,Broadway 2210,0.0,0
40.7810607,-73.976365,Chip City,New York,NY,Columbus Avenue 370,0.0,0
40.7257767,-74.0055352,Starbucks,New York,NY,Varick Street 150,0.0,0
40.850251,-73.9344288,Espresso Heights,New York,NY,Wadsworth Avenue 177,0.0,0
40.7233551,-73.9881657,Lucien,New York,NY,Allen Street 14,0.0,0
40.7538905,-73.9850776,Zucker's Bagels & Smoked Fish,New York,NY,6th Avenue 1065,0.0,0
40.7592421,-73.9951614,SigSpace,New York,NY,West 42nd Street 480,0.0,0
40.790594,-73.9689247,Picky Barista,New York,NY,Columbus Avenue 667,0.0,0
40.7395346,-74.008533,Frenchette Bakery,New York,NY,Unknown Street,0.0,0
40.796445,-73.9348477,Cassava House,New York,NY,1st Avenue 2272,0.0,0
40.7458606,-74.0049844,Intelligentsia Café,New York,NY,Unknown Street,0.0,0
40.7268048,-73.9868664,Elsewhere Espresso,New York,NY,East 6th Street 335,0.0,0
40.7505083,-73.9933551,Starbucks,New York,NY,Unknown Street,0.0,0
40.7548345,-73.9864878,Paris Baguette,New York,NY,Broadway 1450,0.0,0
40.7545541,-73.9830108,Joe & The Juice,New York,NY,West 42nd Street,0.0,0
40.7541345,-73.9717499,Starbucks,New York,NY,Third Avenue 757,0.0,0
40.7551309,-73.9923795,Culture Espresso,New York,NY,West 38th Street 315,0.0,0
40.7228856,-74.0045762,Now or Never,New York,NY,Unknown Street,0.0,0
40.7239804,-73.9801699,Tokuyamatcha Onigirazubar,New York,NY,Unknown Street,0.0,0
40.7292945,-73.989015,Spot Dessert Bar,New York,NY,Unknown Street,0.0,0
40.7117671,-73.9937291,The Monroe,New York,NY,Monroe Street 49,0.0,0
40.7336811,-74.0042611,Do Not Feed Alligators,New York,NY,Bleecker Street 337,0.0,0
40.7273382,-73.9900277,Duo,New York,NY,Unknown Street,0.0,0
40.7880325,-73.9770984,Blank Street Coffee,New York,NY,Broadway 2345,0.0,0
40.7882908,-73.976882,Safta's,New York,NY,Broadway 2345,0.0,0
40.7763311,-73.9798016,The Muffins Cafe,New York,NY,Columbus Avenue 222,0.0,0
40.7205273,-73.9965666,Coffee For Sasquatch,New York,NY,Broome Street 384,0.0,0
40.8429363,-73.9418091,Prestige Cafe & Deli,New York,NY,Fort Washington Avenue 228,0.0,0
40.8502767,-73.9365435,Forever Coffee,New York,NY,West 181st Street 714,0.0,0
40.8428438,-73.942848,Barnes & Noble CUIMC Bookstore Cafe,New York,NY,West 168th Street 711,0.0,0
40.7538327,-73.9925095,Vanilla Gorilla Cafe,New York,NY,Unknown Street,0.0,0
40.8102659,-73.9532009,Omega Bakery & Cafe,New York,NY,Saint Nicholas Avenue 279,0.0,0
40.7600446,-73.9632883,Greenport Cafe,New York,NY,East 59th Street 322,0.0,0
40.759579,-73.9622052,Tramway Diner,New York,NY,1st Avenue 1079,0.0,0
40.7835809,-73.9745307,Starbucks,New York,NY,Columbus Avenue 444,0.0,0
40.7784666,-73.9808526,Hungry & Healthy Marketplace,New York,NY,West 72nd Street 163,0.0,0
40.725889,-73.9954623,Cafe Lyria,New York,NY,Crosby Street 166,0.0,0
40.7246991,-73.9932247,Raf's,New York,NY,Elizabeth Street 290,0.0,0
40.7674269,-73.9547221,Alex Cafe & Deli,New York,NY,East 72nd Street 421,0.0,0
40.783362,-73.974207,About Coffee,New York,NY,Columbus Avenue 445,0.0,0
40.7686957,-73.9518229,Chez les Frenchies,New York,NY,East 75th Street 501,0.0,0
40.7244254,-73.9787948,Kosmic Community Anti Bar,New York,NY,Unknown Street,0.0,0
40.776121,-73.9837543,Le Petit Parisien,New York,NY,Unknown Street,0.0,0
40.7655727,-73.9543985,Naya,New York,NY,Unknown Street,0.0,0
40.7659365,-73.9541722,Starbucks,New York,NY,Unknown Street,0.0,0
40.7514912,-73.9862834,Paris Baguette,New York,NY,6th Avenue 990,0.0,0
40.7157994,-74.0109094,Joe & The Juice,New York,NY,Greenwich Street 295,0.0,0
40.7575906,-73.9674597,Birch Coffee,New York,NY,East 54th Street 240,0.0,0
40.755991,-73.9904415,Starbucks,New York,NY,8th Avenue 620,0.0,0
40.7278978,-73.9792841,Hi-Note,New York,NY,Unknown Street,0.0,0
40.7663014,-73.9573166,Hawa,New York,NY,1st Avenue 1293,0.0,0
40.7605195,-73.9908845,Matto Espresso,New York,NY,9th Avenue 646,0.0,0
40.7604588,-73.9909339,Juice Generation,New York,NY,9th Avenue 644,0.0,0
40.7293401,-74.0049942,Starbucks Pickup,New York,NY,Varick Street 230,0.0,0
40.7335751,-73.9897,Love Mi Yogurt,New York,NY,4th Avenue 133,0.0,0
40.7609179,-73.9823212,Kopifellas,New York,NY,Fifth Avenue 80,0.0,0
40.7585572,-73.9865632,Starbucks,New York,NY,Unknown Street,0.0,0
40.7217666,-73.9921781,The Dutchess Tea House,New York,NY,Unknown Street,0.0,0
40.7494227,-73.9799574,Björk Cafe,New York,NY,Unknown Street,0.0,0
40.7136888,-73.993096,Modern Coffee House,New York,NY,East Broadway 105,0.0,0
40.7275652,-73.9826272,Blank Street Coffee,New York,NY,Avenue A 149,0.0,0
40.7379164,-73.9883261,Starbucks,New York,NY,Unknown Street,0.0,0
40.7292501,-73.9810072,Oasis Cafe,New York,NY,Unknown Street,0.0,0
40.7298281,-73.9805928,Cafe Joah,New York,NY,Unknown Street,0.0,0
40.7258246,-74.0012786,L.A. Burdick Handmade Chocolates,New York,NY,Prince Street 156,0.0,0
40.7211169,-73.9944719,Yours Truly Coffee,New York,NY,Spring Street 8,0.0,0
40.7218228,-73.9957101,Boba Guys,New York,NY,Spring Street 35,0.0,0
40.7220431,-73.9967564,Spring Lemon Tree,New York,NY,Spring Street 56,0.0,0
40.7224732,-73.9972411,The Green Room by Blank Street Coffee,New York,NY,Spring Street 63,0.0,0
40.729764,-73.9835016,Red Beard Bakery,New York,NY,1st Avenue 194,0.0,0
40.7900164,-73.9477263,Da blanca pizzeria,New York,NY,Lexington Avenue 1629,0.0,0
40.7507303,-73.9767376,Le Pain Quotidien,New York,NY,Lexington Avenue 370,0.0,0
40.7296464,-74.0018437,Pop Up Grocer,New York,NY,Bleecker Street 205,0.0,0
40.7531442,-73.974998,Angelina Bakery Grand Central,New York,NY,Lexington Avenue 450,0.0,0
40.7500475,-73.9860309,Angelina Bakery & Pizza,New York,NY,West 35th Street 41,0.0,0
40.7448189,-73.9821539,Sahola Cofee Shop,New York,NY,Unknown Street,0.0,0
40.7223663,-73.9950617,The Elk,New York,NY,Unknown Street,0.0,0
40.7647969,-73.9770797,Starbucks,New York,NY,6th Avenue 1411,0.0,0
40.7476794,-73.9927573,Le Pain Quotidien,New York,NY,Unknown Street,0.0,0
40.8033866,-73.9676206,Heytea,New York,NY,Broadway 2811,0.0,0
40.7640978,-73.9645088,Starbucks,New York,NY,3rd Avenue 1077,0.0,0
40.7321451,-74.0017362,amano cafe,New York,NY,West 4th Street 172,0.0,0
40.7235315,-73.9887809,Cafe La Fe,New York,NY,East 1st Street 70,0.0,0
40.7321479,-74.0038758,St. George Coffee,New York,NY,7th Avenue South 74,0.0,0
40.7517488,-73.9734989,Tap NYC,New York,NY,3rd Avenue 685,0.0,0
40.7562138,-73.9797686,Matto Espresso,New York,NY,Unknown Street,0.0,0
40.7402721,-74.0083044,Hector's Cafe and Diner,New York,NY,Washington Street 835,0.0,0
40.7538462,-73.9724468,10000 Coffee,New York,NY,3rd Avenue 750,0.0,0
40.7341459,-73.9923988,NewsBar,New York,NY,University Place 107,0.0,0
40.7229762,-73.9854532,A'more Cafe,New York,NY,Unknown Street,0.0,0
40.751535,-73.9736439,Starbucks,New York,NY,Unknown Street,0.0,0
40.7401843,-73.9953946,Telegraphe Café,New York,NY,West 18th Street 107,0.0,0
40.7259999,-73.9925835,12 Matcha,New York,NY,Bond Street 54,0.0,0
40.7165259,-73.9980761,Laankee,New York,NY,Unknown Street,0.0,0
40.7346739,-73.9909928,Capital One Café,New York,NY,Unknown Street,0.0,0
40.720665,-73.9959711,Gem,New York,NY,Mott Street 181,0.0,0
40.7533789,-73.9744178,Tiger Sugar,New York,NY,Unknown Street,0.0,0
40.7667053,-73.982032,Carharrt WIP Coffee Bar,New York,NY,West 57th Street 235,0.0,0
40.7309058,-73.9899035,Cafe 2by2,New York,NY,Unknown Street,0.0,0
40.7356607,-73.9923922,Jooy Tea Shoppe,New York,NY,East 14th Street 7,0.0,0
40.7177259,-73.9930447,Fruit Vanity,New York,NY,Unknown Street,0.0,0
40.7528993,-73.996922,Corner Eats,New York,NY,Unknown Street,0.0,0
40.7546617,-73.977442,Black Fox,New York,NY,Unknown Street,0.0,0
40.7567436,-73.982279,Ground Central,New York,NY,Unknown Street,0.0,0
40.7568873,-73.98349,Gumption Coffee,New York,NY,Unknown Street,0.0,0
40.7575283,-73.98419,T45,New York,NY,Unknown Street,0.0,0
40.757443,-73.9846875,Starbucks,New York,NY,Unknown Street,0.0,0
40.7407294,-73.9890957,Gumpton Coffee,New York,NY,Unknown Street,0.0,0
40.7558924,-73.9783736,Macchiato,New York,NY,Unknown Street,0.0,0
40.7434273,-73.9837129,Le café,New York,NY,Unknown Street,0.0,0
40.7548868,-73.9733484,Starbucks,New York,NY,Unknown Street,0.0,0
40.712842,-74.0156587,Mah Ze Dahr,New York,NY,Unknown Street,0.0,0
40.8489667,-73.9388443,Buunni Coffee,New York,NY,Unknown Street,0.0,0
40.7350209,-74.0062596,Joe & The Juice,New York,NY,Unknown Street,0.0,0
40.7516891,-73.9954367,Cha Cha Matcha,New York,NY,Unknown Street,0.0,0
40.7325403,-74.0038809,Joe & The Juice,New York,NY,Bleecker Street 304,0.0,0
40.763845,-73.9703726,Café Bilboquet,New York,NY,East 60th Street 26,0.0,0
40.727471,-73.982871,Village Crêperie,New York,NY,East 9th Street 445,0.0,0
40.7312645,-74.0028039,Arcane Estate Coffee,New York,NY,Unknown Street,0.0,0
40.7595812,-73.9735929,Starbucks,New York,NY,Unknown Street,0.0,0
40.7605509,-73.9675411,Dan Jones Coffee Bar,New York,NY,3rd Avenue 954,0.0,0
40.7637149,-73.9852986,Starbucks,New York,NY,Unknown Street,0.0,0
40.7534146,-73.9780533,The Clock,New York,NY,Vanderbilt Avenue 22,0.0,0
40.7624706,-73.983143,inerro,New York,NY,West 52nd Street 1668,0.0,0
40.7042942,-74.0094919,Pearl,New York,NY,Unknown Street,0.0,0
40.7736075,-73.9595127,Handcraft Coffee,New York,NY,East 77th Street 151,0.0,0
40.735567,-73.9893851,FIFTYLAN,New York,NY,Union Square East 32,0.0,0
40.7423136,-73.9795144,Current Coffee,New York,NY,Unknown Street,0.0,0
40.7285237,-73.9832612,From Lucie,New York,NY,East 10th Street 263,0.0,0
40.707305,-74.0137268,Ateaz Cafe,New York,NY,Greenwich Street 77,0.0,0
40.7256156,-74.0021423,ansā Micro Coffee Roastery,New York,NY,Thompson Street 101,0.0,0
40.7316812,-73.9879701,Sammy L Coffee,NY 10003,Unknown State,83 3rd Ave,4.4,249
40.7270994,-73.97945610000001,Hekate Café & Elixir Lounge,NY 10009,Unknown State,167 Avenue B,4.7,140
40.7294104,-73.9987065,The Uncommons,NY 10012,Unknown State,230 Thompson St,4.6,1573
40.7493629,-73.9942691,787 Coffee Co.,NY 10001,Unknown State,251 W 30th St,4.9,4391
40.7359025,-74.0017136,Fellini Cucina,NY 10014,Unknown State,174 7th Ave S,4.2,475
40.7068228,-74.0085179,NYC Coffee Mocha,NY 10005,Unknown State,54 Pine St,4.6,33
40.7298046,-73.987158,787 Coffee,NY 10003,Unknown State,159 2nd Ave,4.9,2813
40.7113291,-74.00634,Variety Coffee Roasters,NY 10038,Unknown State,140 Nassau St,4.4,265
40.7278415,-73.9907391,Café Standard,NY 10003,Unknown State,The Standard,4.3,198
40.7190149,-73.9845769,Black Cat LES,NY 10002,Unknown State,172 Rivington St,4.2,553
40.7143105,-73.99042419999999,Little Canal,NY 10002,Unknown State,26 Canal St,4.4,499
40.7054353,-74.0091413,Conwell Coffee Hall,NY 10005,Unknown State,6 Hanover St,4.4,632
40.734024,-74.0013903,Radiant café,NY 10014,Unknown State,172 Waverly Pl,4.8,319
40.7203405,-73.988765,Saltwater Coffee & Wine Bar,NY 10002,Unknown State,90 Rivington St,4.2,187
40.7253393,-74.00377759999999,Haraz Coffee House,NY 10012,Unknown State,210 Spring St,4.6,561
40.73030790000001,-74.0003706,Caffe Reggio,NY 10012,Unknown State,119 MacDougal St,4.3,1933
40.7263662,-74.0088985,Felix Roasting Co.,NY 10013,Unknown State,525 Greenwich St,4.2,111
40.7500039,-73.99212299999999,Le Cafe Coffee,NY 10001,Unknown State,392 7th Ave,4.1,123
40.745199,-73.99456169999999,Variety Coffee Roasters,NY 10001,Unknown State,261 7th Ave,4.4,883
40.7402731,-74.0055792,Kobrick Coffee Co.,NY 10014,Unknown State,24 9th Ave,4.3,1462
40.7034852,-74.01083129999999,787 Coffee,NY 10004,Unknown State,66 Pearl St,4.8,3368
40.7247212,-73.9812783,Thayer,NY 10009,Unknown State,99 Avenue B,4.5,105
40.73395439999999,-74.0039929,787 Coffee,NY 10014,Unknown State,204 W 10th St,4.9,3376
40.7328889,-74.0038452,Hungry Ghost Coffee,NY 10014,Unknown State,315 Bleecker St,3.9,206
40.7451277,-73.9783508,Gold coffee,NY 10016,Unknown State,491 3rd Ave,4.9,765
40.7296644,-74.0018107,Café at Pop Up Grocer,NY 10012,Unknown State,205 Bleecker St,4.9,62
40.7287389,-73.9867051,SEALD Cafe,NY 10003,Unknown State,312 E 9th St,4.6,99
40.7263237,-73.9838523,787 Coffee,NY 10009,Unknown State,131 E 7th St,4.9,2790
40.7150818,-73.9931521,Round K,NY 10002,Unknown State,78 Canal St,4.4,713
40.7270884,-73.98938199999999,Coffee Project New York | East Village,NY 10003,Unknown State,239 E 5th St,4.6,793
40.7226675,-73.99718039999999,Iconic Cafe,NY 10012,Unknown State,238 Lafayette St,2.8,25
40.744364,-73.97650089999999,Charlotte Cafe,NY 10016,Unknown State,605 2nd Ave,4.9,927
40.73323180000001,-74.00616380000001,Blackstone Coffee Roaster,NY 10014,Unknown State,502 Hudson St,4.7,300
40.7477348,-73.9861939,COFFEED,NY 10001,Unknown State,11 W 32nd St,4.1,30
40.7478184,-73.99060720000001,King's Street Coffee,NY 10001,Unknown State,121 W 30th St,4.6,472
40.7358203,-73.9941825,Ariston Coffee Bar,NY 10011,Unknown State,78 5th Ave,4.6,572
40.7399113,-74.003287,787 Coffee,NY 10014,Unknown State,310 W 14th St,4.9,2691
40.7481554,-73.9822923,Cinico Coffee Company,NY 10016,Unknown State,199 Madison Ave,4.6,414
40.7161808,-73.9970865,Koré Coffee,NY 10013,Unknown State,26A Elizabeth St,4.7,490
40.70804,-74.014163,REGULAR NYC,NY 10006,Unknown State,19 Rector St,4.9,522
40.7208064,-73.9966015,Urban Backyard,NY 10012,Unknown State,180 Mulberry St,4.8,676
40.7147104,-73.9981425,Artbean Coffee Roasters,NY 10013,Unknown State,19 Doyers St,4.7,337
40.7465799,-73.98822419999999,Copper Mug Coffee,NY 10001,Unknown State,38 W 30th St,4.8,802
40.7256075,-73.9896034,The Bean,NY 10003,Unknown State,54 2nd Ave,4.0,677
40.7333118,-73.9985051,Moshava Coffee,NY 10011,Unknown State,47 W 8th St,4.7,160
40.7453177,-73.9795286,ARVACI coffee,NY 10016,Unknown State,152 E 33rd St,4.8,358
40.7305602,-74.0065341,Merriweather Coffee + Kitchen,NY 10014,Unknown State,428 Hudson St,4.6,472
40.7332972,-74.0005659,Joe Coffee Company: Waverly,NY 10014,Unknown State,141 Waverly Pl,4.5,578
40.7063727,-74.011896,Cafe Rumi,NY 10004,Unknown State,30 New St,4.9,355
40.7165872,-74.00480639999999,787 Coffee,NY 10013,Unknown State,93 Worth St,4.9,2899
40.7453125,-73.9846013,Slate Cafe NoMad,NY 10016,Unknown State,121 Madison Ave #5,4.5,1572
40.725846,-73.995426,Café Lyria,NY 10012,Unknown State,166 Crosby St,4.6,501
40.739821,-73.9989877,Yanni's Coffee,NY 10011,Unknown State,96 7th Ave,4.7,405
40.7447687,-73.98219379999999,Sahola Coffee,NY 10016,Unknown State,108 E 31st St,4.5,146
40.7210156,-74.0044611,Caffe Bene,NY 10013,Unknown State,378 Canal St,4.3,475
40.740787,-74.003361,Terremoto Coffee,NY 10011,Unknown State,328 W 15th St,4.5,547
40.75970909999999,-73.9873617,787 coffee,NY 10036,Unknown State,245 W 46th St,4.9,2629
40.770542,-73.9824572,Cafe aroma,NY 10023,Unknown State,1873 Broadway,4.7,261
40.7625249,-73.98361469999999,Times Square Cafe,NY 10019,Unknown State,1657 Broadway,4.5,260
40.7508631,-73.98906339999999,Herald Square Cafe,NY 10001,Unknown State,We are temporarily closed,4.5,1838
40.7788574,-73.9558565,Variety Coffee Roasters,NY 10028,Unknown State,1269 Lexington Ave,4.4,573
40.7665717,-73.9573989,787 Coffee,NY 10021,Unknown State,340 E 70th St,4.9,1968
40.7667243,-73.9943661,Farmers Cafe & Market,NY 10019,Unknown State,721 11th Ave,4.8,18
40.77428889999999,-73.95563229999999,787 Coffee,NY 10075,Unknown State,228 E 80th St,4.8,2528
40.768874,-73.954072,Inès,NY 10021,Unknown State,419 E 74th St,4.5,393
40.7671347,-73.98665299999999,The Oasis Cafe,NY 10019,Unknown State,857 9th Ave,4.4,359
40.7645954,-73.9841239,Cascade,NY 10019,Unknown State,900 8th Ave,4.4,614
40.7559371,-73.9941049,Cafe Aroma,NY 10018,Unknown State,502 9th Ave,4.5,1001
40.7700442,-73.9627338,Caffe Aronne,NY 10021,Unknown State,976A Lexington Ave,4.6,1145
40.7633791,-73.98122459999999,Cafe Aroma,NY 10019,Unknown State,839 7th Ave,4.6,513
40.760837,-73.98899949999999,Frisson Espresso,NY 10036,Unknown State,10036 326 W 47th St,4.7,1239
40.771602,-73.95658279999999,Ella's Cafe Espresso & Wine Bar,NY 10075,Unknown State,1465 2nd Ave,4.7,422
40.7661278,-73.9799349,Central Park Cafe,NY 10019,Unknown State,910 7th Ave,4.1,534
40.7589167,-73.962008,787 Coffee,NY 10022,Unknown State,401 E 58th St,4.9,2200
40.7602998,-73.9907758,Bird & Branch Coffee Roasters,NY 10036,Unknown State,359 W 45th St,4.6,846
40.7590238,-73.9902597,St Kilda Coffee,NY 10036,Unknown State,328 W 44th St,4.6,700
40.7593039,-73.9663868,WFM Coffee Bar,NY 10022,Unknown State,226 E 57th St,4.1,24
40.7691558,-73.953699,Oslo Coffee Roasters,NY 10021,Unknown State,422 E 75th St,4.6,391
40.766997,-73.95689999999999,Cafe Luka,NY 10021,Unknown State,1317 1st Ave A,4.3,743
40.76849620000001,-73.9856429,Masseria Caffè,NY 10019,Unknown State,891 9th Ave,4.6,164
40.7676039,-73.9931737,Afficionado Coffee Roasters,NY 10019,Unknown State,750 11th Ave,4.6,407
40.7299991,-73.9995587,Third Rail Coffee,NY 10012,Unknown State,240 Sullivan St,4.2,370
40.7593283,-73.9624035,Tenz Espresso Bar,NY 10022,Unknown State,1071A 1st Ave,4.9,194
40.7744363,-73.950884,Green Lane Coffee,NY 10028,Unknown State,1582 1st Ave,4.7,148
40.75664,-73.9859,Starbucks,NY 10036,Unknown State,1500 Broadway,4.0,2157
40.7400325,-74.00158929999999,787 Coffee,NY 10011,Unknown State,256 W 15th St,4.9,3066
40.7546645,-73.9772368,Black Fox Coffee,NY 10017,Unknown State,45 E 45th St,4.5,351
40.7607887,-73.9904902,St Kilda Coffee,NY 10036,Unknown State,374 W 46th St,4.6,275
40.7720664,-73.9536127,Cositas Café,NY 10075,Unknown State,353 E 78th St,4.9,161
40.7532395,-73.9869855,Ten Thousand Coffee,NY 10018,Unknown State,1410 Broadway Unit 105,4.2,679
40.7436115,-74.0031156,Stone Street Coffee,NY 10011,Unknown State,134 9th Ave,4.4,34
40.73232340000001,-74.0015222,The Coppola Cafe,NY 10014,Unknown State,171 W 4th St,4.6,385
40.7590839,-73.9918101,GRIND THE NYC COFFEE SHOP & BAGEL HOUSE,NY 10036,Unknown State,602 9th Ave,4.7,1499
40.7607554,-73.9858962,Masseria Caffe & Bakery,NY 10036,Unknown State,235 W 48th St,4.5,394
40.7913843,-73.9725783,Edgar's Cafe,NY 10025,Unknown State,650 Amsterdam Ave,3.9,506
40.7826719,-73.9534664,La Bomboniera,NY 10128,Unknown State,1378 Lexington Ave,4.8,394
40.74913000000001,-73.98382,Starbucks,NY 10016,Unknown State,373 5th Ave,4.0,828
40.783823,-73.95852529999999,Bluestone Lane Upper East Side Café,NY 10128,Unknown State,1085 5th Ave,4.3,1602
40.7808931,-73.97973379999999,Sote Coffee Roasters,NY 10023,Unknown State,329 Amsterdam Ave,4.9,290
40.7701469,-73.99193149999999,White Noise Coffee - Coffee Shop & Roastery,NY 10019,Unknown State,829 11th Ave,4.7,373
40.7899761,-73.9735632,ARTISAN CAFE,NY 10024,Unknown State,608a Amsterdam Ave,4.8,167
40.7663395,-73.98292099999999,Le Cafe Coffee,NY 10019,Unknown State,250 W 57th St,4.4,360
40.7836728,-73.9777158,Bluestone Lane Upper West Side Café,NY 10024,Unknown State,417 Amsterdam Ave,4.4,749
40.7800578,-73.9803129,Frame Coffee,NY 10023,Unknown State,305 Amsterdam Ave,4.7,298
40.7767227,-73.9797297,Solid State Coffee,NY 10023,Unknown State,104 W 71st St,4.7,640
40.7808386,-73.9476236,L'avion Café,NY 10128,Unknown State,338 E 92nd St,4.5,105
40.7530781,-73.9913242,Culture 36,NY 10018,Unknown State,247 W 36th St.,4.5,646
40.7614519,-73.98452309999999,Tiny Dancer Coffee,NY 10019,Unknown State,IN THE SUBWAY AT,4.8,112
40.767191,-73.9592985,Le Reveil Coffee,NY 10021,Unknown State,1322 2nd Ave,4.4,311
40.7942293,-73.972504,Charlotte Cafe,NY 10025,Unknown State,2541 Broadway,4.8,1376
40.754938,-73.9906492,260’s New York,NY 10018,Unknown State,260 W 39th St,4.7,146
40.7991571,-73.93949529999999,El Barrista cafe,NY 10035,Unknown State,2154 3rd Ave #2,4.6,426
40.7898734,-73.9483415,Frenchy Coffee NYC,NY 10029,Unknown State,129E E 102nd St,4.5,459
40.7760219,-73.9519287,Madame Bonté Café,NY 10028,Unknown State,318 E 84th St,4.5,312
40.7781549,-73.95674730000002,Dear Coffee,NY 10028,Unknown State,1246 Lexington Ave,4.7,247
40.7564652,-73.98978579999999,Bluestone Lane Times Square Coffee Shop,NY 10036,Unknown State,11 Times Sq,4.1,608
40.7973086,-73.9389036,Indomable Coffee,NY 10029,Unknown State,228 E 116th St,4.8,161
40.8110601,-73.9583998,Sipsteria Morningside,NY 10027,Unknown State,1264 Amsterdam Ave,4.6,258
40.7985151,-73.9637097,City Coffee & Bar,NY 10025,Unknown State,914 Columbus Ave,4.7,261
40.8137911,-73.94442459999999,Harlem Cafe,NY 10027,Unknown State,2259 Adam Clayton Powell Jr Blvd,4.2,334
40.8003702,-73.95506270000001,Alke Café,NY 10026,Unknown State,1838 Adam Clayton Powell Jr Blvd,4.8,71
40.8038475,-73.9486865,Kaafi by Chaiguy,NY 10026,Unknown State,171 Lenox Ave,4.5,199
40.7924553,-73.9737438,Moka & Co,NY 10025,Unknown State,2481 Broadway,4.7,419
40.765181,-73.9795894,Weill Café,NY 10019,Unknown State,154 W 57th St,4.9,51
40.7664978,-73.99166730000002,Dot's Cafe,NY 10019,Unknown State,515 W 52nd St,4.6,73
40.8140614,-73.9600265,Kuro Kuma,NY 10027,Unknown State,121 La Salle St,4.7,301
40.76217,-73.98746,Starbucks,NY 10019,Unknown State,325 W 49th St,4.0,543
40.8117846,-73.9544964,I Like It Black,NY 10027,Unknown State,409 W 125th St,4.6,249
40.8037712,-73.95344080000001,M&D Cafe,NY 10026,Unknown State,215 W 116th St,4.1,15
40.794054,-73.971105,Green Lane Coffee,NY 10025,Unknown State,204 W 96th St,4.8,73
40.80636260000001,-73.9631912,Blue Java Café,NY 10027,Unknown State,Butler Library Ground Floor (2nd Floor,4.5,2
40.7841051,-73.97731929999999,maman,NY 10024,Unknown State,429 Amsterdam Ave,4.3,594
40.8046394,-73.9511851,The Monkey Cup,NY 10026,Unknown State,1965 Adam Clayton Powell Jr Blvd,4.7,702
40.774032,-73.9814873,maman,NY 10023,Unknown State,152 Columbus Ave,4.2,605
40.76134,-73.9737435,Black Fox Coffee,NY 10022,Unknown State,Garden,4.6,267
40.8100418,-73.9433182,787 Coffee,NY 10027,Unknown State,60 W 129th St,4.9,1975
40.7636469,-73.965273,Daniel's Coffee and More,NY 10065,Unknown State,1050 3rd Ave # 2b,4.4,150
40.7924319,-73.9730841,The Coffee Place,NY 10025,Unknown State,2496 Broadway,5.0,11
40.7607915,-73.9977372,Romeo and Juliet Colombian Coffee,NY 10036,Unknown State,555 W 42nd St,4.5,1138
40.7401701,-73.9955183,Telegraphe Cafe.,NY 10011,Unknown State,107 W 18th St,4.5,533
40.7072497,-74.0061764,Wolf forest cafe,NY 10038,Unknown State,213 Pearl St,4.7,148
40.7561758,-73.9925797,Aleef Cafe,NY 10018,Unknown State,333 W 39th St,4.8,517
40.7463258,-73.9936389,Metro Cafe,NY 10001,Unknown State,297 7th Ave,4.6,76
40.7452124,-73.9722025,Qahwah Valley Cafe,NY 10016,Unknown State,630 1st Ave,4.7,256
40.7440382,-73.9812981,Murray Cafe,NY 10016,Unknown State,165 Lexington Ave CU2,4.9,55
40.7447842,-73.991721,IndiCo Coffee Co.,NY 10001,Unknown State,769 6th Ave,4.3,89
40.7536881,-73.98258969999999,Bryant Park Café,NY 10018,Unknown State,1065 6th Ave #2400,4.3,717
40.7420568,-73.9895189,Caffè Lavazza.,NY 10010,Unknown State,200 5th Ave,4.2,229
40.7488653,-73.9761281,Caffe venice,NY 10016,Unknown State,596 3rd Ave,4.3,148
40.7422456,-73.9831245,787 Coffee,NY 10016,Unknown State,100 Lexington Ave,4.9,3269
40.7523639,-73.97351139999999,Little Collins,NY 10017,Unknown State,708 3rd Ave,4.5,2454
40.7229055,-74.0045789,Now or Never Coffee,NY 10013,Unknown State,30 Grand St,4.6,386
40.72541150000001,-74.002083,"Drip Drop Café, coffee shop",NY 10012,Unknown State,98 Thompson St,4.8,705
40.7234943,-73.9886523,The Lazy Llama Coffee Bar,NY 10003,Unknown State,72 E 1st St,4.6,373
40.7243437,-73.9949846,Cafè Belle,NY 10012,Unknown State,280 Mulberry St,4.7,224
40.7450198,-74.0058523,Urbana Cafe and Gallery,NY 10011,Unknown State,144 10th Ave,4.6,344
40.7195671,-74.0083683,Cafe Atelier,NY 10013,Unknown State,112 Hudson St,4.5,216
40.72909430000001,-73.98665969999999,MUD,NY 10003,Unknown State,307 E 9th St,4.5,1176
40.7259702,-74.00157639999999,Fellini Coffee Soho,NY 10012,Unknown State,120 Thompson St,4.5,384
40.709189,-74.005899,MCM coffee,NY 10038,Unknown State,88 Fulton St Space E,4.8,234
40.7201345,-73.9965698,Stone Street Café,NY 10013,Unknown State,379 Broome St,4.6,548
